[
    {"id":9091390,"stationCd" : "9091123145", "stationGrpCd" : "1123145", "stationName" : "岩切", "stationNameK" : "イワキリ", "stationNameR" : "iwakiri", "lineCd" : "90911231", "prefCd" : "4", "lon" : "140.954617", "lat" : "38.300773", "openYMD" : "0000-00-00", "closeYMD" : "0000-00-00", "eStatus" : "0", "eSort" : "9091123145" },
    {"id":9091391,"stationCd" : "9091123146", "stationGrpCd" : "1123146", "stationName" : "新利府", "stationNameK" : "シンリフ", "stationNameR" : "shinrifu", "lineCd" : "90911231", "prefCd" : "4", "lon" : "140.972609", "lat" : "38.317059", "openYMD" : "0000-00-00", "closeYMD" : "0000-00-00", "eStatus" : "0", "eSort" : "9091123146" },
    {"id":9091392,"stationCd" : "9091123147", "stationGrpCd" : "1123147", "stationName" : "利府", "stationNameK" : "リフ", "stationNameR" : "rifu", "lineCd" : "90911231", "prefCd" : "4", "lon" : "140.984652", "lat" : "38.329483", "openYMD" : "0000-00-00", "closeYMD" : "0000-00-00", "eStatus" : "0", "eSort" : "9091123147" },
    {"id":9091483,"stationCd" : "9091130302", "stationGrpCd" : "1130302", "stationName" : "尻手", "stationNameK" : "シッテ", "stationNameR" : "shitte", "lineCd" : "90911303", "prefCd" : "14", "lon" : "139.684233", "lat" : "35.530939", "openYMD" : "0000-00-00", "closeYMD" : "0000-00-00", "eStatus" : "0", "eSort" : "9091130302" },
    {"id":9091508,"stationCd" : "9091130326", "stationGrpCd" : "1130326", "stationName" : "八丁畷", "stationNameK" : "ハッチョウナワテ", "stationNameR" : "hacchounawate", "lineCd" : "90911303", "prefCd" : "14", "lon" : "139.691446", "lat" : "35.523071", "openYMD" : "0000-00-00", "closeYMD" : "0000-00-00", "eStatus" : "0", "eSort" : "9091130326" },
    {"id":9091509,"stationCd" : "9091130327", "stationGrpCd" : "1130327", "stationName" : "川崎新町", "stationNameK" : "カワサキシンマチ", "stationNameR" : "kawasakishinmachi", "lineCd" : "90911303", "prefCd" : "14", "lon" : "139.699348", "lat" : "35.518234", "openYMD" : "0000-00-00", "closeYMD" : "0000-00-00", "eStatus" : "0", "eSort" : "9091130327" },
    {"id":9091510,"stationCd" : "9091130330", "stationGrpCd" : "1130330", "stationName" : "小田栄", "stationNameK" : "オダサカエ", "stationNameR" : "Odasakae", "lineCd" : "90911303", "prefCd" : "14", "lon" : "139.704944", "lat" : "35.5145", "openYMD" : "2016-03-26", "closeYMD" : "0000-00-00", "eStatus" : "0", "eSort" : "9091130327" },
    {"id":9091511,"stationCd" : "9091130328", "stationGrpCd" : "1130328", "stationName" : "浜川崎", "stationNameK" : "ハマカワサキ", "stationNameR" : "hamakawasaki", "lineCd" : "90911303", "prefCd" : "14", "lon" : "139.713483", "lat" : "35.510428", "openYMD" : "0000-00-00", "closeYMD" : "0000-00-00", "eStatus" : "0", "eSort" : "9091130328" },
    {"id":9091516,"stationCd" : "9091130405", "stationGrpCd" : "1130405", "stationName" : "浅野", "stationNameK" : "アサノ", "stationNameR" : "asano", "lineCd" : "90911304", "prefCd" : "14", "lon" : "139.695739", "lat" : "35.497555", "openYMD" : "0000-00-00", "closeYMD" : "0000-00-00", "eStatus" : "0", "eSort" : "9091130405" },
    {"id":9091517,"stationCd" : "9091130406", "stationGrpCd" : "1130406", "stationName" : "新芝浦", "stationNameK" : "シンシバウラ", "stationNameR" : "shinshibaura", "lineCd" : "90911304", "prefCd" : "14", "lon" : "139.7001", "lat" : "35.491914", "openYMD" : "0000-00-00", "closeYMD" : "0000-00-00", "eStatus" : "0", "eSort" : "9091130406" },
    {"id":9091518,"stationCd" : "9091130407", "stationGrpCd" : "1130407", "stationName" : "海芝浦", "stationNameK" : "ウミシバウラ", "stationNameR" : "umishibaura", "lineCd" : "90911304", "prefCd" : "14", "lon" : "139.700603", "lat" : "35.486073", "openYMD" : "0000-00-00", "closeYMD" : "0000-00-00", "eStatus" : "0", "eSort" : "9091130407" },
    {"id":90091521,"stationCd" : "90091130410", "stationGrpCd" : "1130410", "stationName" : "武蔵白石", "stationNameK" : "ムサシシライシ", "stationNameR" : "musashishiraishi", "lineCd" : "900911304", "prefCd" : "14", "lon" : "139.706513", "lat" : "35.501912", "openYMD" : "0000-00-00", "closeYMD" : "0000-00-00", "eStatus" : "0", "eSort" : "90091130410a" },
    {"id":90091520,"stationCd" : "90091130409", "stationGrpCd" : "1130409", "stationName" : "大川", "stationNameK" : "オオカワ", "stationNameR" : "ookawa", "lineCd" : "900911304", "prefCd" : "14", "lon" : "139.711038", "lat" : "35.495646", "openYMD" : "0000-00-00", "closeYMD" : "0000-00-00", "eStatus" : "0", "eSort" : "90091130410b" },
    {"id":9091666,"stationCd" : "9091131147", "stationGrpCd" : "1131147", "stationName" : "岡谷", "stationNameK" : "オカヤ", "stationNameR" : "okaya", "lineCd" : "90911311", "prefCd" : "20", "lon" : "138.045001", "lat" : "36.056693", "openYMD" : "0000-00-00", "closeYMD" : "0000-00-00", "eStatus" : "0", "eSort" : "9091131147" },
    {"id":9091668,"stationCd" : "9091131149", "stationGrpCd" : "1131149", "stationName" : "川岸", "stationNameK" : "カワギシ", "stationNameR" : "kawagishi", "lineCd" : "90911311", "prefCd" : "20", "lon" : "138.021937", "lat" : "36.03296", "openYMD" : "0000-00-00", "closeYMD" : "0000-00-00", "eStatus" : "0", "eSort" : "9091131149" },
    {"id":9091669,"stationCd" : "9091131150", "stationGrpCd" : "1131150", "stationName" : "辰野", "stationNameK" : "タツノ", "stationNameR" : "tatsuno", "lineCd" : "90911311", "prefCd" : "20", "lon" : "137.997238", "lat" : "35.984565", "openYMD" : "0000-00-00", "closeYMD" : "0000-00-00", "eStatus" : "0", "eSort" : "9091131150" },
    {"id":9091670,"stationCd" : "9091131151", "stationGrpCd" : "1131151", "stationName" : "信濃川島", "stationNameK" : "シナノカワシマ", "stationNameR" : "shinanokawashima", "lineCd" : "90911311", "prefCd" : "20", "lon" : "137.97185", "lat" : "36.013642", "openYMD" : "0000-00-00", "closeYMD" : "0000-00-00", "eStatus" : "0", "eSort" : "9091131151" },
    {"id":9091671,"stationCd" : "9091131152", "stationGrpCd" : "1131152", "stationName" : "小野", "stationNameK" : "オノ", "stationNameR" : "ono", "lineCd" : "90911311", "prefCd" : "20", "lon" : "137.9706", "lat" : "36.04693", "openYMD" : "0000-00-00", "closeYMD" : "0000-00-00", "eStatus" : "0", "eSort" : "9091131152" },
    {"id":9091672,"stationCd" : "9091131153", "stationGrpCd" : "1131153", "stationName" : "塩尻", "stationNameK" : "シオジリ", "stationNameR" : "shiojiri", "lineCd" : "90911311", "prefCd" : "20", "lon" : "137.947961", "lat" : "36.114364", "openYMD" : "0000-00-00", "closeYMD" : "0000-00-00", "eStatus" : "0", "eSort" : "9091131153" },
    {"id":9092085,"stationCd" : "9091132703", "stationGrpCd" : "1132703", "stationName" : "成田", "stationNameK" : "ナリタ", "stationNameR" : "narita", "lineCd" : "90911327", "prefCd" : "12", "lon" : "140.313853", "lat" : "35.777796", "openYMD" : "0000-00-00", "closeYMD" : "0000-00-00", "eStatus" : "0", "eSort" : "9091132703" },
    {"id":9092110,"stationCd" : "9091132728", "stationGrpCd" : "1132728", "stationName" : "下総松崎", "stationNameK" : "シモウサマンザキ", "stationNameR" : "shimousamanzaki", "lineCd" : "90911327", "prefCd" : "12", "lon" : "140.27749", "lat" : "35.807806", "openYMD" : "0000-00-00", "closeYMD" : "0000-00-00", "eStatus" : "0", "eSort" : "9091132704" },
    {"id":9092109,"stationCd" : "9091132727", "stationGrpCd" : "1132727", "stationName" : "安食", "stationNameK" : "アジキ", "stationNameR" : "ajiki", "lineCd" : "90911327", "prefCd" : "12", "lon" : "140.242051", "lat" : "35.835682", "openYMD" : "0000-00-00", "closeYMD" : "0000-00-00", "eStatus" : "0", "eSort" : "9091132705" },
    {"id":9092108,"stationCd" : "9091132726", "stationGrpCd" : "1132726", "stationName" : "小林", "stationNameK" : "コバヤシ", "stationNameR" : "kobayashi", "lineCd" : "90911327", "prefCd" : "12", "lon" : "140.193028", "lat" : "35.830783", "openYMD" : "0000-00-00", "closeYMD" : "0000-00-00", "eStatus" : "0", "eSort" : "9091132706" },
    {"id":9092107,"stationCd" : "9091132725", "stationGrpCd" : "1132725", "stationName" : "木下", "stationNameK" : "キオロシ", "stationNameR" : "kioroshi", "lineCd" : "90911327", "prefCd" : "12", "lon" : "140.147954", "lat" : "35.838817", "openYMD" : "0000-00-00", "closeYMD" : "0000-00-00", "eStatus" : "0", "eSort" : "9091132707" },
    {"id":9092106,"stationCd" : "9091132724", "stationGrpCd" : "1132724", "stationName" : "布佐", "stationNameK" : "フサ", "stationNameR" : "fusa", "lineCd" : "90911327", "prefCd" : "12", "lon" : "140.13293", "lat" : "35.849371", "openYMD" : "0000-00-00", "closeYMD" : "0000-00-00", "eStatus" : "0", "eSort" : "9091132708" },
    {"id":9092105,"stationCd" : "9091132723", "stationGrpCd" : "1132723", "stationName" : "新木", "stationNameK" : "アラキ", "stationNameR" : "araki", "lineCd" : "90911327", "prefCd" : "12", "lon" : "140.107048", "lat" : "35.862352", "openYMD" : "0000-00-00", "closeYMD" : "0000-00-00", "eStatus" : "0", "eSort" : "9091132709" },
    {"id":9092104,"stationCd" : "9091132722", "stationGrpCd" : "1132722", "stationName" : "湖北", "stationNameK" : "コホク", "stationNameR" : "kohoku", "lineCd" : "90911327", "prefCd" : "12", "lon" : "140.077959", "lat" : "35.867165", "openYMD" : "0000-00-00", "closeYMD" : "0000-00-00", "eStatus" : "0", "eSort" : "9091132710" },
    {"id":9092103,"stationCd" : "9091132721", "stationGrpCd" : "1132721", "stationName" : "東我孫子", "stationNameK" : "ヒガシアビコ", "stationNameR" : "higashiabiko", "lineCd" : "90911327", "prefCd" : "12", "lon" : "140.047754", "lat" : "35.868945", "openYMD" : "0000-00-00", "closeYMD" : "0000-00-00", "eStatus" : "0", "eSort" : "9091132711" },
    {"id":9092102,"stationCd" : "9091132720", "stationGrpCd" : "1132017", "stationName" : "我孫子", "stationNameK" : "アビコ", "stationNameR" : "abiko", "lineCd" : "90911327", "prefCd" : "12", "lon" : "140.010466", "lat" : "35.87279", "openYMD" : "0000-00-00", "closeYMD" : "0000-00-00", "eStatus" : "0", "eSort" : "9091132712" },
    {"id":90092085,"stationCd" : "90091132703", "stationGrpCd" : "1132703", "stationName" : "成田", "stationNameK" : "ナリタ", "stationNameR" : "narita", "lineCd" : "900911327", "prefCd" : "12", "lon" : "140.313853", "lat" : "35.777796", "openYMD" : "0000-00-00", "closeYMD" : "0000-00-00", "eStatus" : "0", "eSort" : "90091132703" },
    {"id":90092086,"stationCd" : "90091132704", "stationGrpCd" : "1132813", "stationName" : "空港第２ビル（第２旅客ターミナル）", "stationNameK" : "クウコウダイニビル", "stationNameR" : "airport terminal 2", "lineCd" : "900911327", "prefCd" : "12", "lon" : "140.387871", "lat" : "35.773327", "openYMD" : "0000-00-00", "closeYMD" : "0000-00-00", "eStatus" : "0", "eSort" : "90091132704" },
    {"id":90092087,"stationCd" : "90091132705", "stationGrpCd" : "1132705", "stationName" : "成田空港（第１旅客ターミナル）", "stationNameK" : "ナリタクウコウ", "stationNameR" : "narita airport", "lineCd" : "900911327", "prefCd" : "12", "lon" : "140.384644", "lat" : "35.763983", "openYMD" : "0000-00-00", "closeYMD" : "0000-00-00", "eStatus" : "0", "eSort" : "90091132705" },
    {"id":9092117,"stationCd" : "9091132806", "stationGrpCd" : "1130208", "stationName" : "新宿", "stationNameK" : "シンジュク", "stationNameR" : "shinjuku", "lineCd" : "90911328", "prefCd" : "13", "lon" : "139.700464", "lat" : "35.689729", "openYMD" : "0000-00-00", "closeYMD" : "0000-00-00", "eStatus" : "0", "eSort" : "9091132806" },
    {"id":9092124,"stationCd" : "9091132807", "stationGrpCd" : "1130205", "stationName" : "渋谷", "stationNameK" : "シブヤ", "stationNameR" : "shibuya", "lineCd" : "90911328", "prefCd" : "13", "lon" : "139.701238", "lat" : "35.658871", "openYMD" : "0000-00-00", "closeYMD" : "0000-00-00", "eStatus" : "0", "eSort" : "9091132807" },
    {"id":9092125,"stationCd" : "9091132808", "stationGrpCd" : "1130103", "stationName" : "品川", "stationNameK" : "シナガワ", "stationNameR" : "shinagawa", "lineCd" : "90911328", "prefCd" : "13", "lon" : "139.738999", "lat" : "35.62876", "openYMD" : "0000-00-00", "closeYMD" : "0000-00-00", "eStatus" : "0", "eSort" : "9091132808" },
    {"id":9092126,"stationCd" : "9091132809", "stationGrpCd" : "1130101", "stationName" : "東京", "stationNameK" : "トウキョウ", "stationNameR" : "tokyo", "lineCd" : "90911328", "prefCd" : "13", "lon" : "139.766103", "lat" : "35.681391", "openYMD" : "0000-00-00", "closeYMD" : "0000-00-00", "eStatus" : "0", "eSort" : "9091132809" },
    {"id":9092127,"stationCd" : "9091132810", "stationGrpCd" : "1131339", "stationName" : "千葉", "stationNameK" : "チバ", "stationNameR" : "chiba", "lineCd" : "90911328", "prefCd" : "12", "lon" : "140.112837", "lat" : "35.613425", "openYMD" : "0000-00-00", "closeYMD" : "0000-00-00", "eStatus" : "0", "eSort" : "9091132810" },
    {"id":9092128,"stationCd" : "9091132811", "stationGrpCd" : "1131413", "stationName" : "四街道", "stationNameK" : "ヨツカイドウ", "stationNameR" : "yotsukaidou", "lineCd" : "90911328", "prefCd" : "12", "lon" : "140.165023", "lat" : "35.662756", "openYMD" : "0000-00-00", "closeYMD" : "0000-00-00", "eStatus" : "0", "eSort" : "9091132811" },
    {"id":9092129,"stationCd" : "9091132822", "stationGrpCd" : "1131415", "stationName" : "佐倉", "stationNameK" : "サクラ", "stationNameR" : "sakura", "lineCd" : "90911328", "prefCd" : "12", "lon" : "140.226722", "lat" : "35.709743", "openYMD" : "0000-00-00", "closeYMD" : "0000-00-00", "eStatus" : "0", "eSort" : "9091132811" },
    {"id":9092130,"stationCd" : "9091132812", "stationGrpCd" : "1132703", "stationName" : "成田", "stationNameK" : "ナリタ", "stationNameR" : "narita", "lineCd" : "90911328", "prefCd" : "12", "lon" : "140.313853", "lat" : "35.777796", "openYMD" : "0000-00-00", "closeYMD" : "0000-00-00", "eStatus" : "0", "eSort" : "9091132812" },
    {"id":9092131,"stationCd" : "9091132813", "stationGrpCd" : "1132813", "stationName" : "空港第２ビル（第２旅客ターミナル）", "stationNameK" : "クウコウダイニビル", "stationNameR" : "airport terminal 2", "lineCd" : "90911328", "prefCd" : "12", "lon" : "140.387163", "lat" : "35.773693", "openYMD" : "0000-00-00", "closeYMD" : "0000-00-00", "eStatus" : "0", "eSort" : "9091132813" },
    {"id":9092132,"stationCd" : "9091132814", "stationGrpCd" : "1132705", "stationName" : "成田空港（第１旅客ターミナル）", "stationNameK" : "ナリタクウコウ", "stationNameR" : "narita airport", "lineCd" : "90911328", "prefCd" : "12", "lon" : "140.384644", "lat" : "35.763983", "openYMD" : "0000-00-00", "closeYMD" : "0000-00-00", "eStatus" : "0", "eSort" : "9091132814" },
    {"id":9092251,"stationCd" : "9091133807", "stationGrpCd" : "1133807", "stationName" : "上菅谷", "stationNameK" : "カミスガヤ", "stationNameR" : "kamisugaya", "lineCd" : "90911338", "prefCd" : "8", "lon" : "140.492659", "lat" : "36.455378", "openYMD" : "0000-00-00", "closeYMD" : "0000-00-00", "eStatus" : "0", "eSort" : "9091133807" },
    {"id":9092252,"stationCd" : "9091133808", "stationGrpCd" : "1133808", "stationName" : "南酒出", "stationNameK" : "ミナミサカイデ", "stationNameR" : "minamisakaide", "lineCd" : "90911338", "prefCd" : "8", "lon" : "140.498471", "lat" : "36.477361", "openYMD" : "0000-00-00", "closeYMD" : "0000-00-00", "eStatus" : "0", "eSort" : "9091133808" },
    {"id":9092253,"stationCd" : "9091133809", "stationGrpCd" : "1133809", "stationName" : "額田", "stationNameK" : "ヌカダ", "stationNameR" : "nukada", "lineCd" : "90911338", "prefCd" : "8", "lon" : "140.503462", "lat" : "36.485705", "openYMD" : "0000-00-00", "closeYMD" : "0000-00-00", "eStatus" : "0", "eSort" : "9091133809" },
    {"id":9092254,"stationCd" : "9091133810", "stationGrpCd" : "1133810", "stationName" : "河合", "stationNameK" : "カワイ", "stationNameR" : "kawai", "lineCd" : "90911338", "prefCd" : "8", "lon" : "140.517118", "lat" : "36.508241", "openYMD" : "0000-00-00", "closeYMD" : "0000-00-00", "eStatus" : "0", "eSort" : "9091133810" },
    {"id":9092255,"stationCd" : "9091133811", "stationGrpCd" : "1133811", "stationName" : "谷河原", "stationNameK" : "ヤガワラ", "stationNameR" : "yagawara", "lineCd" : "90911338", "prefCd" : "8", "lon" : "140.52502", "lat" : "36.519782", "openYMD" : "0000-00-00", "closeYMD" : "0000-00-00", "eStatus" : "0", "eSort" : "9091133811" },
    {"id":9092256,"stationCd" : "9091133812", "stationGrpCd" : "1133812", "stationName" : "常陸太田", "stationNameK" : "ヒタチオオタ", "stationNameR" : "hitachioota", "lineCd" : "90911338", "prefCd" : "8", "lon" : "140.52777", "lat" : "36.531225", "openYMD" : "0000-00-00", "closeYMD" : "0000-00-00", "eStatus" : "0", "eSort" : "9091133812" },
    {"id":9094288,"stationCd" : "9091172305", "stationGrpCd" : "1172305", "stationName" : "雀田", "stationNameK" : "スズメダ", "stationNameR" : "suzumeda", "lineCd" : "90911723", "prefCd" : "35", "lon" : "131.186951", "lat" : "33.960743", "openYMD" : "0000-00-00", "closeYMD" : "0000-00-00", "eStatus" : "0", "eSort" : "9091172305" },
    {"id":9094294,"stationCd" : "9091172311", "stationGrpCd" : "1172311", "stationName" : "浜河内", "stationNameK" : "ハマゴウチ", "stationNameR" : "hamagouchi", "lineCd" : "90911723", "prefCd" : "35", "lon" : "131.179518", "lat" : "33.950529", "openYMD" : "0000-00-00", "closeYMD" : "0000-00-00", "eStatus" : "0", "eSort" : "9091172311" },
    {"id":9094295,"stationCd" : "9091172312", "stationGrpCd" : "1172312", "stationName" : "長門本山", "stationNameK" : "ナガトモトヤマ", "stationNameR" : "nagatomotoyama", "lineCd" : "90911723", "prefCd" : "35", "lon" : "131.173213", "lat" : "33.942755", "openYMD" : "0000-00-00", "closeYMD" : "0000-00-00", "eStatus" : "0", "eSort" : "9091172312" },
    {"id":9094528,"stationCd" : "9091180707", "stationGrpCd" : "1180707", "stationName" : "向井原", "stationNameK" : "ムカイバラ", "stationNameR" : "mukaibara", "lineCd" : "90911807", "prefCd" : "38", "lon" : "132.695736", "lat" : "33.735871", "openYMD" : "0000-00-00", "closeYMD" : "0000-00-00", "eStatus" : "0", "eSort" : "9091180707" },
    {"id":9094529,"stationCd" : "9091180708", "stationGrpCd" : "1180708", "stationName" : "伊予大平", "stationNameK" : "イヨオオヒラ", "stationNameR" : "iyooohira", "lineCd" : "90911807", "prefCd" : "38", "lon" : "132.708479", "lat" : "33.715973", "openYMD" : "0000-00-00", "closeYMD" : "0000-00-00", "eStatus" : "0", "eSort" : "9091180708" },
    {"id":9094530,"stationCd" : "9091180709", "stationGrpCd" : "1180709", "stationName" : "伊予中山", "stationNameK" : "イヨナカヤマ", "stationNameR" : "iyonakayama", "lineCd" : "90911807", "prefCd" : "38", "lon" : "132.711629", "lat" : "33.649881", "openYMD" : "0000-00-00", "closeYMD" : "0000-00-00", "eStatus" : "0", "eSort" : "9091180709" },
    {"id":9094531,"stationCd" : "9091180710", "stationGrpCd" : "1180710", "stationName" : "伊予立川", "stationNameK" : "イヨタチカワ", "stationNameR" : "iyotachikawa", "lineCd" : "90911807", "prefCd" : "38", "lon" : "132.677", "lat" : "33.600458", "openYMD" : "0000-00-00", "closeYMD" : "0000-00-00", "eStatus" : "0", "eSort" : "9091180710" },
    {"id":9094532,"stationCd" : "9091180711", "stationGrpCd" : "1180711", "stationName" : "内子", "stationNameK" : "ウチコ", "stationNameR" : "uchiko", "lineCd" : "90911807", "prefCd" : "38", "lon" : "132.646207", "lat" : "33.549305", "openYMD" : "0000-00-00", "closeYMD" : "0000-00-00", "eStatus" : "0", "eSort" : "9091180711" },
    {"id":9094533,"stationCd" : "9091180712", "stationGrpCd" : "1180712", "stationName" : "五十崎", "stationNameK" : "イカザキ", "stationNameR" : "ikazaki", "lineCd" : "90911807", "prefCd" : "38", "lon" : "132.635859", "lat" : "33.537809", "openYMD" : "0000-00-00", "closeYMD" : "0000-00-00", "eStatus" : "0", "eSort" : "9091180712" },
    {"id":9094534,"stationCd" : "9091180713", "stationGrpCd" : "1180713", "stationName" : "喜多山", "stationNameK" : "キタヤマ", "stationNameR" : "kitayama", "lineCd" : "90911807", "prefCd" : "38", "lon" : "132.611428", "lat" : "33.533426", "openYMD" : "0000-00-00", "closeYMD" : "0000-00-00", "eStatus" : "0", "eSort" : "9091180713" },
    {"id":9094535,"stationCd" : "9091180714", "stationGrpCd" : "1180714", "stationName" : "新谷", "stationNameK" : "ニイヤ", "stationNameR" : "niiya", "lineCd" : "90911807", "prefCd" : "38", "lon" : "132.599037", "lat" : "33.534153", "openYMD" : "0000-00-00", "closeYMD" : "0000-00-00", "eStatus" : "0", "eSort" : "9091180714" },
    {"id":9094547,"stationCd" : "9091180726", "stationGrpCd" : "1180726", "stationName" : "伊予大洲", "stationNameK" : "イヨオオズ", "stationNameR" : "iyooozu", "lineCd" : "90911807", "prefCd" : "38", "lon" : "132.54485", "lat" : "33.518601", "openYMD" : "0000-00-00", "closeYMD" : "0000-00-00", "eStatus" : "0", "eSort" : "9091180726" },
    {"id":9094713,"stationCd" : "9091190529", "stationGrpCd" : "1190529", "stationName" : "喜々津", "stationNameK" : "キキツ", "stationNameR" : "kikitsu", "lineCd" : "90911905", "prefCd" : "42", "lon" : "129.98627", "lat" : "32.832743", "openYMD" : "0000-00-00", "closeYMD" : "0000-00-00", "eStatus" : "0", "eSort" : "9091190529" },
    {"id":9094717,"stationCd" : "9091190533", "stationGrpCd" : "1190533", "stationName" : "東園", "stationNameK" : "ヒガシソノ", "stationNameR" : "higashisono", "lineCd" : "90911905", "prefCd" : "42", "lon" : "129.962591", "lat" : "32.847091", "openYMD" : "0000-00-00", "closeYMD" : "0000-00-00", "eStatus" : "0", "eSort" : "9091190533" },
    {"id":9094718,"stationCd" : "9091190534", "stationGrpCd" : "1190534", "stationName" : "大草", "stationNameK" : "オオクサ", "stationNameR" : "ookusa", "lineCd" : "90911905", "prefCd" : "42", "lon" : "129.938972", "lat" : "32.860232", "openYMD" : "0000-00-00", "closeYMD" : "0000-00-00", "eStatus" : "0", "eSort" : "9091190534" },
    {"id":9094719,"stationCd" : "9091190535", "stationGrpCd" : "1190535", "stationName" : "本川内", "stationNameK" : "ホンカワチ", "stationNameR" : "honkawachi", "lineCd" : "90911905", "prefCd" : "42", "lon" : "129.899916", "lat" : "32.831792", "openYMD" : "0000-00-00", "closeYMD" : "0000-00-00", "eStatus" : "0", "eSort" : "9091190535" },
    {"id":9094720,"stationCd" : "9091190536", "stationGrpCd" : "1190536", "stationName" : "長与", "stationNameK" : "ナガヨ", "stationNameR" : "nagayo", "lineCd" : "90911905", "prefCd" : "42", "lon" : "129.879434", "lat" : "32.818981", "openYMD" : "0000-00-00", "closeYMD" : "0000-00-00", "eStatus" : "0", "eSort" : "9091190536" },
    {"id":9094721,"stationCd" : "9091190537", "stationGrpCd" : "1190537", "stationName" : "高田", "stationNameK" : "コウダ", "stationNameR" : "kouda", "lineCd" : "90911905", "prefCd" : "42", "lon" : "129.869457", "lat" : "32.819475", "openYMD" : "0000-00-00", "closeYMD" : "0000-00-00", "eStatus" : "0", "eSort" : "9091190537" },
    {"id":9094722,"stationCd" : "9091190538", "stationGrpCd" : "1190538", "stationName" : "道ノ尾", "stationNameK" : "ミチノオ", "stationNameR" : "michinoo", "lineCd" : "90911905", "prefCd" : "42", "lon" : "129.852997", "lat" : "32.804329", "openYMD" : "0000-00-00", "closeYMD" : "0000-00-00", "eStatus" : "0", "eSort" : "9091190538" },
    {"id":9094723,"stationCd" : "9091190539", "stationGrpCd" : "1190539", "stationName" : "西浦上", "stationNameK" : "ニシウラカミ", "stationNameR" : "nishiurakami", "lineCd" : "90911905", "prefCd" : "42", "lon" : "129.859206", "lat" : "32.790245", "openYMD" : "0000-00-00", "closeYMD" : "0000-00-00", "eStatus" : "0", "eSort" : "9091190539" },
    {"id":9094724,"stationCd" : "9091190540", "stationGrpCd" : "1190540", "stationName" : "浦上", "stationNameK" : "ウラカミ", "stationNameR" : "urakami", "lineCd" : "90911905", "prefCd" : "42", "lon" : "129.863304", "lat" : "32.765767", "openYMD" : "0000-00-00", "closeYMD" : "0000-00-00", "eStatus" : "0", "eSort" : "9091190540" },
    {"id":9095427,"stationCd" : "9092101205", "stationGrpCd" : "2101205", "stationName" : "東小泉", "stationNameK" : "ヒガシコイズミ", "stationNameR" : "higashikoizumi", "lineCd" : "90921012", "prefCd" : "10", "lon" : "139.428456", "lat" : "36.259696", "openYMD" : "0000-00-00", "closeYMD" : "0000-00-00", "eStatus" : "0", "eSort" : "9092101205" },
    {"id":9095431,"stationCd" : "9092101209", "stationGrpCd" : "2101209", "stationName" : "竜舞", "stationNameK" : "リュウマイ", "stationNameR" : "ryuumai", "lineCd" : "90921012", "prefCd" : "10", "lon" : "139.409002", "lat" : "36.278894", "openYMD" : "0000-00-00", "closeYMD" : "0000-00-00", "eStatus" : "0", "eSort" : "9092101209" },
    {"id":9095430,"stationCd" : "9092101208", "stationGrpCd" : "2100248", "stationName" : "太田", "stationNameK" : "オオタ", "stationNameR" : "oota", "lineCd" : "90921012", "prefCd" : "10", "lon" : "139.378779", "lat" : "36.294228", "openYMD" : "0000-00-00", "closeYMD" : "0000-00-00", "eStatus" : "0", "eSort" : "9092101210" },
    {"id":9095581,"stationCd" : "9092300140", "stationGrpCd" : "1132703", "stationName" : "京成成田", "stationNameK" : "ケイセイナリタ", "stationNameR" : "keiseinarita", "lineCd" : "90923001", "prefCd" : "12", "lon" : "140.315473", "lat" : "35.776308", "openYMD" : "0000-00-00", "closeYMD" : "0000-00-00", "eStatus" : "0", "eSort" : "9092300140" },
    {"id":9095582,"stationCd" : "9092300141", "stationGrpCd" : "2300141", "stationName" : "東成田", "stationNameK" : "ヒガシナリタ", "stationNameR" : "higashinarita", "lineCd" : "90923001", "prefCd" : "12", "lon" : "140.387225", "lat" : "35.770091", "openYMD" : "0000-00-00", "closeYMD" : "0000-00-00", "eStatus" : "0", "eSort" : "9092300141" },
    {"id":9099793,"stationCd" : "9099963001", "stationGrpCd" : "1160313", "stationName" : "三宮", "stationNameK" : "サンノミヤ", "stationNameR" : "Sannomiya", "lineCd" : "90999630", "prefCd" : "28", "lon" : "135.192862", "lat" : "34.693233", "openYMD" : "0000-00-00", "closeYMD" : "0000-00-00", "eStatus" : "0", "eSort" : "9099963001" },
    {"id":9099794,"stationCd" : "9099963002", "stationGrpCd" : "9963002", "stationName" : "花隈", "stationNameK" : "ハナクマ", "stationNameR" : "hanakuma", "lineCd" : "90999630", "prefCd" : "28", "lon" : "135.181524", "lat" : "34.686117", "openYMD" : "0000-00-00", "closeYMD" : "0000-00-00", "eStatus" : "0", "eSort" : "9099963002" },
    {"id":9099797,"stationCd" : "9099963005", "stationGrpCd" : "9963005", "stationName" : "高速神戸", "stationNameK" : "コウソクコウベ", "stationNameR" : "kousokukoube", "lineCd" : "90999630", "prefCd" : "28", "lon" : "135.174441", "lat" : "34.679362", "openYMD" : "0000-00-00", "closeYMD" : "0000-00-00", "eStatus" : "0", "eSort" : "9099963005" },
    {"id":9099798,"stationCd" : "9099963006", "stationGrpCd" : "9963006", "stationName" : "新開地", "stationNameK" : "シンカイチ", "stationNameR" : "shinkaichi", "lineCd" : "90999630", "prefCd" : "28", "lon" : "135.169291", "lat" : "34.675981", "openYMD" : "0000-00-00", "closeYMD" : "0000-00-00", "eStatus" : "0", "eSort" : "9099963006" },
     {"id":9096002,"stationCd" : "9092800220", "stationGrpCd" : "2800220", "stationName" : "中野坂上", "stationNameK" : "ナカノサカウエ", "stationNameR" : "nakanosakaue", "lineCd" : "90928002", "prefCd" : "13", "lon" : "139.68291", "lat" : "35.69792", "openYMD" : "0000-00-00", "closeYMD" : "0000-00-00", "eStatus" : "0", "eSort" : "9092800220" },
     {"id":9096008,"stationCd" : "9092800226", "stationGrpCd" : "2800226", "stationName" : "中野新橋", "stationNameK" : "ナカノシンバシ", "stationNameR" : "nakanoshinbashi", "lineCd" : "90928002", "prefCd" : "13", "lon" : "139.673997", "lat" : "35.692123", "openYMD" : "0000-00-00", "closeYMD" : "0000-00-00", "eStatus" : "0", "eSort" : "9092800226" },
     {"id":9096009,"stationCd" : "9092800227", "stationGrpCd" : "2800227", "stationName" : "中野富士見町", "stationNameK" : "ナカノフジミチョウ", "stationNameR" : "nakanofujimichou", "lineCd" : "90928002", "prefCd" : "13", "lon" : "139.666933", "lat" : "35.690514", "openYMD" : "0000-00-00", "closeYMD" : "0000-00-00", "eStatus" : "0", "eSort" : "9092800227" },
     {"id":9096010,"stationCd" : "9092800228", "stationGrpCd" : "2800228", "stationName" : "方南町", "stationNameK" : "ホウナンチョウ", "stationNameR" : "hounanchou", "lineCd" : "90928002", "prefCd" : "13", "lon" : "139.656498", "lat" : "35.683496", "openYMD" : "0000-00-00", "closeYMD" : "0000-00-00", "eStatus" : "0", "eSort" : "9092800228" },
    {"id":9099974,"stationCd" : "9099964806", "stationGrpCd" : "9964806", "stationName" : "市民広場", "stationNameK" : "シミンヒロバ", "stationNameR" : "shiminhiroba", "lineCd" : "90999648", "prefCd" : "28", "lon" : "135.212455", "lat" : "34.664897", "openYMD" : "0000-00-00", "closeYMD" : "0000-00-00", "eStatus" : "0", "eSort" : "9099964806" },
    {"id":9099978,"stationCd" : "9099964810", "stationGrpCd" : "9964810", "stationName" : "南公園", "stationNameK" : "ミナミコウエン", "stationNameR" : "minamikouen", "lineCd" : "90999648", "prefCd" : "28", "lon" : "135.217007", "lat" : "34.664666", "openYMD" : "0000-00-00", "closeYMD" : "0000-00-00", "eStatus" : "0", "eSort" : "9099964810" },
    {"id":9099979,"stationCd" : "9099964811", "stationGrpCd" : "9964811", "stationName" : "中埠頭", "stationNameK" : "ナカフトウ", "stationNameR" : "nakafutou", "lineCd" : "90999648", "prefCd" : "28", "lon" : "135.217096", "lat" : "34.669266", "openYMD" : "0000-00-00", "closeYMD" : "0000-00-00", "eStatus" : "0", "eSort" : "9099964811" },
    {"id":9099980,"stationCd" : "9099964812", "stationGrpCd" : "9964812", "stationName" : "北埠頭", "stationNameK" : "キタフトウ", "stationNameR" : "kitafutou", "lineCd" : "90999648", "prefCd" : "28", "lon" : "135.214632", "lat" : "34.673566", "openYMD" : "0000-00-00", "closeYMD" : "0000-00-00", "eStatus" : "0", "eSort" : "9099964812" },
    {"id":9099972,"stationCd" : "9099964804", "stationGrpCd" : "9964804", "stationName" : "中公園", "stationNameK" : "ナカコウエン", "stationNameR" : "nakakouen", "lineCd" : "90999648", "prefCd" : "28", "lon" : "135.207483", "lat" : "34.673124", "openYMD" : "0000-00-00", "closeYMD" : "0000-00-00", "eStatus" : "0", "eSort" : "9099964813" },
    {"id":909284,"stationCd" : "9091110420", "stationGrpCd" : "1110420", "stationName" : "東室蘭", "stationNameK" : "ヒガシムロラン", "stationNameR" : "higashimuroran", "lineCd" : "90911104", "prefCd" : "1", "lon" : "141.026411", "lat" : "42.349374", "openYMD" : "0000-00-00", "closeYMD" : "0000-00-00", "eStatus" : "0", "eSort" : "9091110420" },
    {"id":909283,"stationCd" : "9091110419", "stationGrpCd" : "1110419", "stationName" : "輪西", "stationNameK" : "ワニシ", "stationNameR" : "wanishi", "lineCd" : "90911104", "prefCd" : "1", "lon" : "141.005743", "lat" : "42.333775", "openYMD" : "0000-00-00", "closeYMD" : "0000-00-00", "eStatus" : "0", "eSort" : "9091110421" },
    {"id":909282,"stationCd" : "9091110418", "stationGrpCd" : "1110418", "stationName" : "御崎", "stationNameK" : "ミサキ", "stationNameR" : "misaki", "lineCd" : "90911104", "prefCd" : "1", "lon" : "140.993881", "lat" : "42.329014", "openYMD" : "0000-00-00", "closeYMD" : "0000-00-00", "eStatus" : "0", "eSort" : "9091110422" },
    {"id":909281,"stationCd" : "9091110417", "stationGrpCd" : "1110417", "stationName" : "母恋", "stationNameK" : "ボコイ", "stationNameR" : "bokoi", "lineCd" : "90911104", "prefCd" : "1", "lon" : "140.990018", "lat" : "42.317295", "openYMD" : "0000-00-00", "closeYMD" : "0000-00-00", "eStatus" : "0", "eSort" : "9091110423" },
    {"id":909280,"stationCd" : "9091110416", "stationGrpCd" : "1110416", "stationName" : "室蘭", "stationNameK" : "ムロラン", "stationNameR" : "muroran", "lineCd" : "90911104", "prefCd" : "1", "lon" : "140.97571", "lat" : "42.317864", "openYMD" : "0000-00-00", "closeYMD" : "0000-00-00", "eStatus" : "0", "eSort" : "9091110424" },
    {"id":909388,"stationCd" : "9091110906", "stationGrpCd" : "1110906", "stationName" : "南千歳", "stationNameK" : "ミナミチトセ", "stationNameR" : "minamichitose", "lineCd" : "90911109", "prefCd" : "1", "lon" : "141.675388", "lat" : "42.80804", "openYMD" : "0000-00-00", "closeYMD" : "0000-00-00", "eStatus" : "0", "eSort" : "9091110906" },
    {"id":909387,"stationCd" : "9091110905", "stationGrpCd" : "1110905", "stationName" : "新千歳空港", "stationNameK" : "シンチトセクウコウ", "stationNameR" : "New Chitose Airport", "lineCd" : "90911109", "prefCd" : "1", "lon" : "141.680823", "lat" : "42.787546", "openYMD" : "0000-00-00", "closeYMD" : "0000-00-00", "eStatus" : "0", "eSort" : "9091110907" },
    {"id":9096320,"stationCd" : "9093000702", "stationGrpCd" : "3000702", "stationName" : "りんくう常滑", "stationNameK" : "リンクウトコナメ", "stationNameR" : "Rinku Tokoname", "lineCd" : "30008", "prefCd" : "23", "lon" : "136.828164", "lat" : "34.87967", "openYMD" : "0000-00-00", "closeYMD" : "0000-00-00", "eStatus" : "0", "eSort" : "9093000702" },
    {"id":9096321,"stationCd" : "9093000703", "stationGrpCd" : "3000703", "stationName" : "中部国際空港", "stationNameK" : "チュウブコクサイクウコウ", "stationNameR" : "Central Japan International Airport", "lineCd" : "30008", "prefCd" : "23", "lon" : "136.816382", "lat" : "34.859262", "openYMD" : "0000-00-00", "closeYMD" : "0000-00-00", "eStatus" : "0", "eSort" : "9093000703" },
    {"id":9092072,"stationCd" : "9091132609", "stationGrpCd" : "1132609", "stationName" : "市川塩浜", "stationNameK" : "イチカワシオハマ", "stationNameR" : "ichikawashiohama", "lineCd" : "90911326", "prefCd" : "12", "lon" : "139.923684", "lat" : "35.666554", "openYMD" : "0000-00-00", "closeYMD" : "0000-00-00", "eStatus" : "0", "eSort" : "9091132609" },
    {"id":9092073,"stationCd" : "9091132610", "stationGrpCd" : "1130524", "stationName" : "西船橋", "stationNameK" : "ニシフナバシ", "stationNameR" : "nishifunabashi", "lineCd" : "90911326", "prefCd" : "12", "lon" : "139.959536", "lat" : "35.707283", "openYMD" : "0000-00-00", "closeYMD" : "0000-00-00", "eStatus" : "0", "eSort" : "9091132610" },
    {"id":9092075,"stationCd" : "9091132612", "stationGrpCd" : "1132612", "stationName" : "南船橋", "stationNameK" : "ミナミフナバシ", "stationNameR" : "minamifunabashi", "lineCd" : "90911326", "prefCd" : "12", "lon" : "139.995773", "lat" : "35.681804", "openYMD" : "0000-00-00", "closeYMD" : "0000-00-00", "eStatus" : "0", "eSort" : "9091132612" },
    {"id":9092994,"stationCd" : "9091150304", "stationGrpCd" : "1150304", "stationName" : "大垣", "stationNameK" : "オオガキ", "stationNameR" : "oogaki", "lineCd" : "90911503", "prefCd" : "21", "lon" : "136.618288", "lat" : "35.367096", "openYMD" : "0000-00-00", "closeYMD" : "0000-00-00", "eStatus" : "0", "eSort" : "9091150304" },
    {"id":9092995,"stationCd" : "9091150305", "stationGrpCd" : "1150305", "stationName" : "荒尾", "stationNameK" : "アラオ", "stationNameR" : "arao", "lineCd" : "90911503", "prefCd" : "21", "lon" : "136.583276", "lat" : "35.373454", "openYMD" : "0000-00-00", "closeYMD" : "0000-00-00", "eStatus" : "0", "eSort" : "9091150305" },
    {"id":9092996,"stationCd" : "9091150306", "stationGrpCd" : "1150306", "stationName" : "美濃赤坂", "stationNameK" : "ミノアカサカ", "stationNameR" : "minoakasaka", "lineCd" : "90911503", "prefCd" : "21", "lon" : "136.582129", "lat" : "35.386677", "openYMD" : "0000-00-00", "closeYMD" : "0000-00-00", "eStatus" : "0", "eSort" : "9091150306" },
    {"id":9098843,"stationCd" : "9099942119", "stationGrpCd" : "9942119", "stationName" : "福井城址大名町", "stationNameK" : "フクイジョウシダイミョウマチ", "stationNameR" : "Fukui Castle Ruins-daimyomachi", "lineCd" : "90999421", "prefCd" : "18", "lon" : "136.217566", "lat" : "36.063523", "openYMD" : "0000-00-00", "closeYMD" : "0000-00-00", "eStatus" : "0", "eSort" : "9099942119" },
    {"id":9098844,"stationCd" : "9099942120", "stationGrpCd" : "1141523", "stationName" : "福井駅", "stationNameK" : "フクイエキ", "stationNameR" : "fukuieki", "lineCd" : "90999421", "prefCd" : "18", "lon" : "136.220625", "lat" : "36.061871", "openYMD" : "1933-10-15", "closeYMD" : "0000-00-00", "eStatus" : "0", "eSort" : "9099942120" },
    {"id":90910175,"stationCd" : "9099971120", "stationGrpCd" : "1161117", "stationName" : "広電西広島（己斐）", "stationNameK" : "ヒロデンニシヒロシマ（コイ）", "stationNameR" : "hiroden-nishi-hiroshima(koi)", "lineCd" : "90999711", "prefCd" : "34", "lon" : "132.428255", "lat" : "34.397261", "openYMD" : "0000-00-00", "closeYMD" : "0000-00-00", "eStatus" : "0", "eSort" : "9971120" },
    {"id":90910176,"stationCd" : "9099971121", "stationGrpCd" : "9971121", "stationName" : "東高須", "stationNameK" : "ヒガシタカス", "stationNameR" : "higashitakasu", "lineCd" : "90999711", "prefCd" : "34", "lon" : "132.420224", "lat" : "34.391922", "openYMD" : "0000-00-00", "closeYMD" : "0000-00-00", "eStatus" : "0", "eSort" : "9971121" },
    {"id":90910177,"stationCd" : "9099971122", "stationGrpCd" : "9971122", "stationName" : "高須", "stationNameK" : "タカス", "stationNameR" : "takasu", "lineCd" : "90999711", "prefCd" : "34", "lon" : "132.417055", "lat" : "34.389872", "openYMD" : "0000-00-00", "closeYMD" : "0000-00-00", "eStatus" : "0", "eSort" : "9971122" },
    {"id":90910178,"stationCd" : "9099971123", "stationGrpCd" : "9971123", "stationName" : "古江", "stationNameK" : "フルエ", "stationNameR" : "furue", "lineCd" : "90999711", "prefCd" : "34", "lon" : "132.411383", "lat" : "34.386311", "openYMD" : "0000-00-00", "closeYMD" : "0000-00-00", "eStatus" : "0", "eSort" : "9971123" },
    {"id":90910179,"stationCd" : "9099971124", "stationGrpCd" : "9971124", "stationName" : "草津", "stationNameK" : "クサツ", "stationNameR" : "kusatsu", "lineCd" : "90999711", "prefCd" : "34", "lon" : "132.403915", "lat" : "34.3816", "openYMD" : "0000-00-00", "closeYMD" : "0000-00-00", "eStatus" : "0", "eSort" : "9971124" },
    {"id":90910180,"stationCd" : "9099971125", "stationGrpCd" : "9971125", "stationName" : "草津南", "stationNameK" : "クサツミナミ", "stationNameR" : "kusatsuminami", "lineCd" : "90999711", "prefCd" : "34", "lon" : "132.398479", "lat" : "34.378092", "openYMD" : "0000-00-00", "closeYMD" : "0000-00-00", "eStatus" : "0", "eSort" : "9971125" },
    {"id":90910181,"stationCd" : "9099971126", "stationGrpCd" : "1161118", "stationName" : "商工センター入口", "stationNameK" : "ショウコウセンターイリグチ", "stationNameR" : "Shoko Center-iriguchi", "lineCd" : "90999711", "prefCd" : "34", "lon" : "132.391999", "lat" : "34.375423", "openYMD" : "0000-00-00", "closeYMD" : "0000-00-00", "eStatus" : "0", "eSort" : "9971126" },
    {"id":90910182,"stationCd" : "9099971127", "stationGrpCd" : "9971127", "stationName" : "井口", "stationNameK" : "イノクチ", "stationNameR" : "inokuchi", "lineCd" : "90999711", "prefCd" : "34", "lon" : "132.385805", "lat" : "34.371751", "openYMD" : "0000-00-00", "closeYMD" : "0000-00-00", "eStatus" : "0", "eSort" : "9971127" },
    {"id":90910183,"stationCd" : "9099971128", "stationGrpCd" : "9971128", "stationName" : "修大協創中高前", "stationNameK" : "シュウダイキョウソウチュウコウマエ", "stationNameR" : "syuudaikyousoutyuukoumae", "lineCd" : "90999711", "prefCd" : "34", "lon" : "132.374589", "lat" : "34.368218", "openYMD" : "0000-00-00", "closeYMD" : "0000-00-00", "eStatus" : "0", "eSort" : "9971128" },
    {"id":90910184,"stationCd" : "9099971129", "stationGrpCd" : "1161119", "stationName" : "広電五日市", "stationNameK" : "ヒロデンイツカイチ", "stationNameR" : "Hiroden-itsukaichi", "lineCd" : "90999711", "prefCd" : "34", "lon" : "132.367856", "lat" : "34.366393", "openYMD" : "0000-00-00", "closeYMD" : "0000-00-00", "eStatus" : "0", "eSort" : "9971129" },
    {"id":90910185,"stationCd" : "9099971130", "stationGrpCd" : "9971130", "stationName" : "佐伯区役所前", "stationNameK" : "サエキクヤクショマエ", "stationNameR" : "saekikuyakushomae", "lineCd" : "90999711", "prefCd" : "34", "lon" : "132.361709", "lat" : "34.365443", "openYMD" : "0000-00-00", "closeYMD" : "0000-00-00", "eStatus" : "0", "eSort" : "9971130" },
    {"id":90910186,"stationCd" : "9099971131", "stationGrpCd" : "9971131", "stationName" : "楽々園", "stationNameK" : "ラクラクエン", "stationNameR" : "Rakurakuen", "lineCd" : "90999711", "prefCd" : "34", "lon" : "132.351988", "lat" : "34.364282", "openYMD" : "0000-00-00", "closeYMD" : "0000-00-00", "eStatus" : "0", "eSort" : "9971131" },
    {"id":90910187,"stationCd" : "9099971132", "stationGrpCd" : "9971132", "stationName" : "山陽女学園前", "stationNameK" : "サンヨウジョガクエンマエ", "stationNameR" : "Sanyo-jogakuen-mae", "lineCd" : "90999711", "prefCd" : "34", "lon" : "132.341251", "lat" : "34.361948", "openYMD" : "0000-00-00", "closeYMD" : "0000-00-00", "eStatus" : "0", "eSort" : "9971132" },
    {"id":90910188,"stationCd" : "9099971133", "stationGrpCd" : "1161120", "stationName" : "広電廿日市", "stationNameK" : "ヒロデンハツカイチ", "stationNameR" : "Hiroden-hatsukaichi", "lineCd" : "90999711", "prefCd" : "34", "lon" : "132.336179", "lat" : "34.356621", "openYMD" : "0000-00-00", "closeYMD" : "0000-00-00", "eStatus" : "0", "eSort" : "9971133" },
    {"id":90910189,"stationCd" : "9099971134", "stationGrpCd" : "9971134", "stationName" : "廿日市市役所前（平良）", "stationNameK" : "ハツカイチシヤクショマエ（ヘラ）", "stationNameR" : "hatsukaichi-shiyakusyo-mae(hera)", "lineCd" : "90999711", "prefCd" : "34", "lon" : "132.329722", "lat" : "34.352816", "openYMD" : "0000-00-00", "closeYMD" : "0000-00-00", "eStatus" : "0", "eSort" : "9971134" },
    {"id":90910190,"stationCd" : "9099971135", "stationGrpCd" : "1161121", "stationName" : "宮内", "stationNameK" : "ミヤウチ", "stationNameR" : "miyauchi", "lineCd" : "90999711", "prefCd" : "34", "lon" : "132.325226", "lat" : "34.347472", "openYMD" : "0000-00-00", "closeYMD" : "0000-00-00", "eStatus" : "0", "eSort" : "9971135" },
    {"id":90910191,"stationCd" : "9099971136", "stationGrpCd" : "9971136", "stationName" : "ＪＡ広島病院前", "stationNameK" : "ジェイエイヒロシマビョウインマエ", "stationNameR" : "JA Hiroshimabyoin-mae", "lineCd" : "90999711", "prefCd" : "34", "lon" : "132.322404", "lat" : "34.343959", "openYMD" : "0000-00-00", "closeYMD" : "0000-00-00", "eStatus" : "0", "eSort" : "9971136" },
    {"id":90910192,"stationCd" : "9099971137", "stationGrpCd" : "9971137", "stationName" : "地御前", "stationNameK" : "ジゴゼン", "stationNameR" : "Jigozen", "lineCd" : "90999711", "prefCd" : "34", "lon" : "132.320049", "lat" : "34.340942", "openYMD" : "0000-00-00", "closeYMD" : "0000-00-00", "eStatus" : "0", "eSort" : "9971137" },
    {"id":90910193,"stationCd" : "9099971138", "stationGrpCd" : "9971138", "stationName" : "阿品東", "stationNameK" : "アジナヒガシ", "stationNameR" : "ajinahigashi", "lineCd" : "90999711", "prefCd" : "34", "lon" : "132.318579", "lat" : "34.326488", "openYMD" : "0000-00-00", "closeYMD" : "0000-00-00", "eStatus" : "0", "eSort" : "9971138" },
    {"id":90910194,"stationCd" : "9099971139", "stationGrpCd" : "1161122", "stationName" : "広電阿品", "stationNameK" : "ヒロデンアジナ", "stationNameR" : "Hiroden-ajina", "lineCd" : "90999711", "prefCd" : "34", "lon" : "132.31483", "lat" : "34.321933", "openYMD" : "0000-00-00", "closeYMD" : "0000-00-00", "eStatus" : "0", "eSort" : "9971139" },
    {"id":90910195,"stationCd" : "9099971140", "stationGrpCd" : "9971140", "stationName" : "宮島ボートレース場", "stationNameK" : "ミヤジマボートレースジョウ", "stationNameR" : "Miyajima boat race ground", "lineCd" : "90999711", "prefCd" : "34", "lon" : "132.305006", "lat" : "34.314425", "openYMD" : "0000-00-00", "closeYMD" : "0000-00-00", "eStatus" : "0", "eSort" : "9971140" },
    {"id":90910196,"stationCd" : "9099971141", "stationGrpCd" : "1161123", "stationName" : "広電宮島口", "stationNameK" : "ヒロデンミヤジマグチ", "stationNameR" : "Hiroden-miyajima-guchi", "lineCd" : "90999711", "prefCd" : "34", "lon" : "132.304256", "lat" : "34.31217", "openYMD" : "0000-00-00", "closeYMD" : "0000-00-00", "eStatus" : "0", "eSort" : "9971141" },
    {"id":1,"stationCd" : "100201", "stationGrpCd" : "1130101", "stationName" : "東京", "stationNameK" : "トウキョウ", "stationNameR" : "Tokyo", "lineCd" : "1002", "prefCd" : "13", "lon" : "139.766084", "lat" : "35.681382", "openYMD" : "1914-12-20", "closeYMD" : "0000-00-00", "eStatus" : "0", "eSort" : "100201" },
    {"id":2,"stationCd" : "100202", "stationGrpCd" : "1130103", "stationName" : "品川", "stationNameK" : "シナガワ", "stationNameR" : "Shinagawa", "lineCd" : "1002", "prefCd" : "13", "lon" : "139.74044", "lat" : "35.630152", "openYMD" : "1872-06-12", "closeYMD" : "0000-00-00", "eStatus" : "0", "eSort" : "100202" },
    {"id":3,"stationCd" : "100203", "stationGrpCd" : "1130604", "stationName" : "新横浜", "stationNameK" : "シンヨコハマ", "stationNameR" : "Shin-Yokohama", "lineCd" : "1002", "prefCd" : "14", "lon" : "139.617585", "lat" : "35.507456", "openYMD" : "1964-10-01", "closeYMD" : "0000-00-00", "eStatus" : "0", "eSort" : "100203" },
    {"id":4,"stationCd" : "100204", "stationGrpCd" : "1130116", "stationName" : "小田原", "stationNameK" : "オダワラ", "stationNameR" : "Odawara", "lineCd" : "1002", "prefCd" : "14", "lon" : "139.154904", "lat" : "35.25642", "openYMD" : "1920-10-21", "closeYMD" : "0000-00-00", "eStatus" : "0", "eSort" : "100204" },
    {"id":5,"stationCd" : "100205", "stationGrpCd" : "1130121", "stationName" : "熱海", "stationNameK" : "アタミ", "stationNameR" : "Atami", "lineCd" : "1002", "prefCd" : "22", "lon" : "139.07776", "lat" : "35.103217", "openYMD" : "1925-03-25", "closeYMD" : "0000-00-00", "eStatus" : "0", "eSort" : "100205" },
    {"id":6,"stationCd" : "100206", "stationGrpCd" : "1150103", "stationName" : "三島", "stationNameK" : "ミシマ", "stationNameR" : "Mishima", "lineCd" : "1002", "prefCd" : "22", "lon" : "138.910627", "lat" : "35.127152", "openYMD" : "1934-12-01", "closeYMD" : "0000-00-00", "eStatus" : "0", "eSort" : "100206" },
    {"id":7,"stationCd" : "100207", "stationGrpCd" : "100207", "stationName" : "新富士", "stationNameK" : "シンフジ", "stationNameR" : "Shin-Fuji", "lineCd" : "1002", "prefCd" : "22", "lon" : "138.663382", "lat" : "35.142015", "openYMD" : "1988-03-13", "closeYMD" : "0000-00-00", "eStatus" : "0", "eSort" : "100207" },
    {"id":8,"stationCd" : "100208", "stationGrpCd" : "1150118", "stationName" : "静岡", "stationNameK" : "シズオカ", "stationNameR" : "Shizuoka", "lineCd" : "1002", "prefCd" : "22", "lon" : "138.38884", "lat" : "34.97171", "openYMD" : "1889-02-01", "closeYMD" : "0000-00-00", "eStatus" : "0", "eSort" : "100208" },
    {"id":9,"stationCd" : "100209", "stationGrpCd" : "1150128", "stationName" : "掛川", "stationNameK" : "カケガワ", "stationNameR" : "Kakegawa", "lineCd" : "1002", "prefCd" : "22", "lon" : "138.014928", "lat" : "34.769758", "openYMD" : "1889-04-16", "closeYMD" : "0000-00-00", "eStatus" : "0", "eSort" : "100209" },
    {"id":10,"stationCd" : "100210", "stationGrpCd" : "1150201", "stationName" : "浜松", "stationNameK" : "ハママツ", "stationNameR" : "Hamamatsu", "lineCd" : "1002", "prefCd" : "22", "lon" : "137.734442", "lat" : "34.703741", "openYMD" : "1888-09-01", "closeYMD" : "0000-00-00", "eStatus" : "0", "eSort" : "100210" },
    {"id":11,"stationCd" : "100211", "stationGrpCd" : "1141301", "stationName" : "豊橋", "stationNameK" : "トヨハシ", "stationNameR" : "Toyohashi", "lineCd" : "1002", "prefCd" : "23", "lon" : "137.381651", "lat" : "34.762811", "openYMD" : "1888-09-01", "closeYMD" : "0000-00-00", "eStatus" : "0", "eSort" : "100211" },
    {"id":12,"stationCd" : "100212", "stationGrpCd" : "1150222", "stationName" : "三河安城", "stationNameK" : "ミカワアンジョウ", "stationNameR" : "Mikawa-anjo", "lineCd" : "1002", "prefCd" : "23", "lon" : "137.060662", "lat" : "34.96897", "openYMD" : "1988-03-13", "closeYMD" : "0000-00-00", "eStatus" : "0", "eSort" : "100212" },
    {"id":13,"stationCd" : "100213", "stationGrpCd" : "1141101", "stationName" : "名古屋", "stationNameK" : "ナゴヤ", "stationNameR" : "Nagoya", "lineCd" : "1002", "prefCd" : "23", "lon" : "136.881645", "lat" : "35.170686", "openYMD" : "1886-05-01", "closeYMD" : "0000-00-00", "eStatus" : "0", "eSort" : "100213" },
    {"id":14,"stationCd" : "100214", "stationGrpCd" : "3002102", "stationName" : "岐阜羽島", "stationNameK" : "ギフハシマ", "stationNameR" : "Gifu-Hashima", "lineCd" : "1002", "prefCd" : "21", "lon" : "136.685822", "lat" : "35.316001", "openYMD" : "1964-10-01", "closeYMD" : "0000-00-00", "eStatus" : "0", "eSort" : "100214" },
    {"id":15,"stationCd" : "100215", "stationGrpCd" : "1141501", "stationName" : "米原", "stationNameK" : "マイバラ", "stationNameR" : "Maibara", "lineCd" : "1002", "prefCd" : "25", "lon" : "136.290488", "lat" : "35.314188", "openYMD" : "1889-07-01", "closeYMD" : "0000-00-00", "eStatus" : "0", "eSort" : "100215" },
    {"id":16,"stationCd" : "100216", "stationGrpCd" : "1160120", "stationName" : "京都", "stationNameK" : "キョウト", "stationNameR" : "Kyoto", "lineCd" : "1002", "prefCd" : "26", "lon" : "135.757755", "lat" : "34.985458", "openYMD" : "1877-02-06", "closeYMD" : "0000-00-00", "eStatus" : "0", "eSort" : "100216" },
    {"id":17,"stationCd" : "100217", "stationGrpCd" : "1160213", "stationName" : "新大阪", "stationNameK" : "シンオオサカ", "stationNameR" : "Shin-Osaka", "lineCd" : "1002", "prefCd" : "27", "lon" : "135.500109", "lat" : "34.73348", "openYMD" : "1964-10-01", "closeYMD" : "0000-00-00", "eStatus" : "0", "eSort" : "100217" },
    {"id":18,"stationCd" : "100301", "stationGrpCd" : "1160213", "stationName" : "新大阪", "stationNameK" : "シンオオサカ", "stationNameR" : "Shin-Osaka", "lineCd" : "1003", "prefCd" : "27", "lon" : "135.500109", "lat" : "34.73348", "openYMD" : "1964-10-01", "closeYMD" : "0000-00-00", "eStatus" : "0", "eSort" : "100301" },
    {"id":19,"stationCd" : "100302", "stationGrpCd" : "9963601", "stationName" : "新神戸", "stationNameK" : "シンコウベ", "stationNameR" : "Shin-Kobe", "lineCd" : "1003", "prefCd" : "28", "lon" : "135.195758", "lat" : "34.706417", "openYMD" : "1972-03-15", "closeYMD" : "0000-00-00", "eStatus" : "0", "eSort" : "100302" },
    {"id":20,"stationCd" : "100303", "stationGrpCd" : "1160811", "stationName" : "西明石", "stationNameK" : "ニシアカシ", "stationNameR" : "Nishi-Akashi", "lineCd" : "1003", "prefCd" : "28", "lon" : "134.960542", "lat" : "34.666855", "openYMD" : "1944-04-01", "closeYMD" : "0000-00-00", "eStatus" : "0", "eSort" : "100303" },
    {"id":21,"stationCd" : "100304", "stationGrpCd" : "1160821", "stationName" : "姫路", "stationNameK" : "ヒメジ", "stationNameR" : "Himeji", "lineCd" : "1003", "prefCd" : "28", "lon" : "134.690849", "lat" : "34.827642", "openYMD" : "1888-12-23", "closeYMD" : "0000-00-00", "eStatus" : "0", "eSort" : "100304" },
    {"id":22,"stationCd" : "100305", "stationGrpCd" : "1160905", "stationName" : "相生", "stationNameK" : "アイオイ", "stationNameR" : "Aioi", "lineCd" : "1003", "prefCd" : "28", "lon" : "134.473888", "lat" : "34.817955", "openYMD" : "1890-07-10", "closeYMD" : "0000-00-00", "eStatus" : "0", "eSort" : "100305" },
    {"id":23,"stationCd" : "100306", "stationGrpCd" : "1160917", "stationName" : "岡山", "stationNameK" : "オカヤマ", "stationNameR" : "Okayama", "lineCd" : "1003", "prefCd" : "33", "lon" : "133.918588", "lat" : "34.666369", "openYMD" : "1891-03-18", "closeYMD" : "0000-00-00", "eStatus" : "0", "eSort" : "100306" },
    {"id":24,"stationCd" : "100307", "stationGrpCd" : "1161007", "stationName" : "新倉敷", "stationNameK" : "シンクラシキ", "stationNameR" : "Shin-Kurashiki", "lineCd" : "1003", "prefCd" : "33", "lon" : "133.678671", "lat" : "34.56499", "openYMD" : "1891-07-14", "closeYMD" : "0000-00-00", "eStatus" : "0", "eSort" : "100307" },
    {"id":25,"stationCd" : "100308", "stationGrpCd" : "1161014", "stationName" : "福山", "stationNameK" : "フクヤマ", "stationNameR" : "Fukuyama", "lineCd" : "1003", "prefCd" : "34", "lon" : "133.361432", "lat" : "34.489327", "openYMD" : "1891-09-11", "closeYMD" : "0000-00-00", "eStatus" : "0", "eSort" : "100308" },
    {"id":26,"stationCd" : "100309", "stationGrpCd" : "100309", "stationName" : "新尾道", "stationNameK" : "シンオノミチ", "stationNameR" : "Shin-Onomichi", "lineCd" : "1003", "prefCd" : "34", "lon" : "133.190158", "lat" : "34.429859", "openYMD" : "1988-03-13", "closeYMD" : "0000-00-00", "eStatus" : "0", "eSort" : "100309" },
    {"id":27,"stationCd" : "100310", "stationGrpCd" : "1161020", "stationName" : "三原", "stationNameK" : "ミハラ", "stationNameR" : "Mihara", "lineCd" : "1003", "prefCd" : "34", "lon" : "133.083572", "lat" : "34.399934", "openYMD" : "1894-06-10", "closeYMD" : "0000-00-00", "eStatus" : "0", "eSort" : "100310" },
    {"id":28,"stationCd" : "100311", "stationGrpCd" : "100311", "stationName" : "東広島", "stationNameK" : "ヒガシヒロシマ", "stationNameR" : "Higashihiroshima", "lineCd" : "1003", "prefCd" : "34", "lon" : "132.759762", "lat" : "34.389035", "openYMD" : "1988-03-13", "closeYMD" : "0000-00-00", "eStatus" : "0", "eSort" : "100311" },
    {"id":29,"stationCd" : "100312", "stationGrpCd" : "1161115", "stationName" : "広島", "stationNameK" : "ヒロシマ", "stationNameR" : "Hiroshima", "lineCd" : "1003", "prefCd" : "34", "lon" : "132.4758267", "lat" : "34.39823447", "openYMD" : "0000-00-00", "closeYMD" : "0000-00-00", "eStatus" : "0", "eSort" : "100312" },
    {"id":30,"stationCd" : "100313", "stationGrpCd" : "100313", "stationName" : "新岩国", "stationNameK" : "シンイワクニ", "stationNameR" : "Shin-Iwakuni", "lineCd" : "1003", "prefCd" : "35", "lon" : "132.149384", "lat" : "34.164672", "openYMD" : "1975-03-10", "closeYMD" : "0000-00-00", "eStatus" : "0", "eSort" : "100313" },
    {"id":31,"stationCd" : "100314", "stationGrpCd" : "1161216", "stationName" : "徳山", "stationNameK" : "トクヤマ", "stationNameR" : "Tokuyama", "lineCd" : "1003", "prefCd" : "35", "lon" : "131.8029", "lat" : "34.051555", "openYMD" : "1897-09-25", "closeYMD" : "0000-00-00", "eStatus" : "0", "eSort" : "100314" },
    {"id":32,"stationCd" : "100315", "stationGrpCd" : "1161224", "stationName" : "新山口", "stationNameK" : "シンヤマグチ", "stationNameR" : "Shin-Yamaguchi", "lineCd" : "1003", "prefCd" : "35", "lon" : "131.397155", "lat" : "34.093061", "openYMD" : "1900-12-03", "closeYMD" : "0000-00-00", "eStatus" : "0", "eSort" : "100315" },
    {"id":33,"stationCd" : "100316", "stationGrpCd" : "1161230", "stationName" : "厚狭", "stationNameK" : "アサ", "stationNameR" : "Asa", "lineCd" : "1003", "prefCd" : "35", "lon" : "131.159965", "lat" : "34.053361", "openYMD" : "1900-12-03", "closeYMD" : "0000-00-00", "eStatus" : "0", "eSort" : "100316" },
    {"id":34,"stationCd" : "100317", "stationGrpCd" : "1161234", "stationName" : "新下関", "stationNameK" : "シンシモノセキ", "stationNameR" : "Shin-Shimonoseki", "lineCd" : "1003", "prefCd" : "35", "lon" : "130.948243", "lat" : "34.005615", "openYMD" : "1901-05-27", "closeYMD" : "0000-00-00", "eStatus" : "0", "eSort" : "100317" },
    {"id":35,"stationCd" : "100318", "stationGrpCd" : "1190205", "stationName" : "小倉", "stationNameK" : "コクラ", "stationNameR" : "Kokura", "lineCd" : "1003", "prefCd" : "40", "lon" : "130.882466", "lat" : "33.887108", "openYMD" : "1891-04-01", "closeYMD" : "0000-00-00", "eStatus" : "0", "eSort" : "100318" },
    {"id":36,"stationCd" : "100319", "stationGrpCd" : "1190101", "stationName" : "博多", "stationNameK" : "ハカタ", "stationNameR" : "Hakata", "lineCd" : "1003", "prefCd" : "40", "lon" : "130.420622", "lat" : "33.590002", "openYMD" : "1889-12-11", "closeYMD" : "0000-00-00", "eStatus" : "0", "eSort" : "100319" },
    {"id":37,"stationCd" : "100401", "stationGrpCd" : "1130101", "stationName" : "東京", "stationNameK" : "トウキョウ", "stationNameR" : "Tokyo", "lineCd" : "1004", "prefCd" : "13", "lon" : "139.766084", "lat" : "35.681382", "openYMD" : "1914-12-20", "closeYMD" : "0000-00-00", "eStatus" : "0", "eSort" : "100401" },
    {"id":38,"stationCd" : "100402", "stationGrpCd" : "1130220", "stationName" : "上野", "stationNameK" : "ウエノ", "stationNameR" : "Ueno", "lineCd" : "1004", "prefCd" : "13", "lon" : "139.777254", "lat" : "35.713768", "openYMD" : "1883-07-28", "closeYMD" : "0000-00-00", "eStatus" : "0", "eSort" : "100402" },
    {"id":39,"stationCd" : "100403", "stationGrpCd" : "1131906", "stationName" : "大宮", "stationNameK" : "オオミヤ", "stationNameR" : "Omiya", "lineCd" : "1004", "prefCd" : "11", "lon" : "139.624", "lat" : "35.906206", "openYMD" : "1885-03-16", "closeYMD" : "0000-00-00", "eStatus" : "0", "eSort" : "100403" },
    {"id":40,"stationCd" : "100404", "stationGrpCd" : "1131918", "stationName" : "小山", "stationNameK" : "オヤマ", "stationNameR" : "Oyama", "lineCd" : "1004", "prefCd" : "9", "lon" : "139.80685", "lat" : "36.3142", "openYMD" : "0000-00-00", "closeYMD" : "0000-00-00", "eStatus" : "0", "eSort" : "100404" },
    {"id":41,"stationCd" : "100405", "stationGrpCd" : "1131923", "stationName" : "宇都宮", "stationNameK" : "ウツノミヤ", "stationNameR" : "Utsunomiya", "lineCd" : "1004", "prefCd" : "9", "lon" : "139.898283", "lat" : "36.558701", "openYMD" : "0000-00-00", "closeYMD" : "0000-00-00", "eStatus" : "0", "eSort" : "100405" },
    {"id":42,"stationCd" : "100406", "stationGrpCd" : "1131932", "stationName" : "那須塩原", "stationNameK" : "ナスシオバラ", "stationNameR" : "Nasushiobara", "lineCd" : "1004", "prefCd" : "9", "lon" : "140.020514", "lat" : "36.931772", "openYMD" : "0000-00-00", "closeYMD" : "0000-00-00", "eStatus" : "0", "eSort" : "100406" },
    {"id":43,"stationCd" : "100407", "stationGrpCd" : "1123106", "stationName" : "新白河", "stationNameK" : "シンシラカワ", "stationNameR" : "Shin-Shirakawa", "lineCd" : "1004", "prefCd" : "7", "lon" : "140.188998", "lat" : "37.123281", "openYMD" : "1944-10-11", "closeYMD" : "0000-00-00", "eStatus" : "0", "eSort" : "100407" },
    {"id":44,"stationCd" : "100408", "stationGrpCd" : "1123114", "stationName" : "郡山", "stationNameK" : "コオリヤマ", "stationNameR" : "Koriyama", "lineCd" : "1004", "prefCd" : "7", "lon" : "140.388412", "lat" : "37.397983", "openYMD" : "1887-07-16", "closeYMD" : "0000-00-00", "eStatus" : "0", "eSort" : "100408" },
    {"id":45,"stationCd" : "100409", "stationGrpCd" : "1123124", "stationName" : "福島", "stationNameK" : "フクシマ", "stationNameR" : "Fukushima", "lineCd" : "1004", "prefCd" : "7", "lon" : "140.458724", "lat" : "37.754311", "openYMD" : "1887-12-15", "closeYMD" : "0000-00-00", "eStatus" : "0", "eSort" : "100409" },
    {"id":46,"stationCd" : "100410", "stationGrpCd" : "100410", "stationName" : "白石蔵王", "stationNameK" : "シロイシザオウ", "stationNameR" : "Shiroishizao", "lineCd" : "1004", "prefCd" : "4", "lon" : "140.633035", "lat" : "37.995485", "openYMD" : "1982-06-23", "closeYMD" : "0000-00-00", "eStatus" : "0", "eSort" : "100410" },
    {"id":47,"stationCd" : "100411", "stationGrpCd" : "1123143", "stationName" : "仙台", "stationNameK" : "センダイ", "stationNameR" : "Sendai", "lineCd" : "1004", "prefCd" : "4", "lon" : "140.882244", "lat" : "38.260286", "openYMD" : "1887-12-15", "closeYMD" : "0000-00-00", "eStatus" : "0", "eSort" : "100411" },
    {"id":48,"stationCd" : "100412", "stationGrpCd" : "1122104", "stationName" : "古川", "stationNameK" : "フルカワ", "stationNameR" : "Furukawa", "lineCd" : "1004", "prefCd" : "4", "lon" : "140.967832", "lat" : "38.57092", "openYMD" : "1913-04-20", "closeYMD" : "0000-00-00", "eStatus" : "0", "eSort" : "100412" },
    {"id":49,"stationCd" : "100413", "stationGrpCd" : "100413", "stationName" : "くりこま高原", "stationNameK" : "クリコマコウゲン", "stationNameR" : "Kurikoma-Kogen", "lineCd" : "1004", "prefCd" : "4", "lon" : "141.071785", "lat" : "38.74893", "openYMD" : "1990-03-10", "closeYMD" : "0000-00-00", "eStatus" : "0", "eSort" : "100413" },
    {"id":50,"stationCd" : "100414", "stationGrpCd" : "1123166", "stationName" : "一ノ関", "stationNameK" : "イチノセキ", "stationNameR" : "Ichinoseki", "lineCd" : "1004", "prefCd" : "3", "lon" : "141.13889", "lat" : "38.92608", "openYMD" : "1890-04-16", "closeYMD" : "0000-00-00", "eStatus" : "0", "eSort" : "100414" },
    {"id":51,"stationCd" : "100415", "stationGrpCd" : "100415", "stationName" : "水沢江刺", "stationNameK" : "ミズサワエサシ", "stationNameR" : "Mizusawa Esashi", "lineCd" : "1004", "prefCd" : "3", "lon" : "141.188803", "lat" : "39.145194", "openYMD" : "1985-03-14", "closeYMD" : "0000-00-00", "eStatus" : "0", "eSort" : "100415" },
    {"id":52,"stationCd" : "100416", "stationGrpCd" : "1123174", "stationName" : "北上", "stationNameK" : "キタカミ", "stationNameR" : "Kitakami", "lineCd" : "1004", "prefCd" : "3", "lon" : "141.122598", "lat" : "39.282229", "openYMD" : "1890-11-01", "closeYMD" : "0000-00-00", "eStatus" : "0", "eSort" : "100416" },
    {"id":53,"stationCd" : "100417", "stationGrpCd" : "1120903", "stationName" : "新花巻", "stationNameK" : "シンハナマキ", "stationNameR" : "Shin-Hanamaki", "lineCd" : "1004", "prefCd" : "3", "lon" : "141.173715", "lat" : "39.406453", "openYMD" : "1985-03-14", "closeYMD" : "0000-00-00", "eStatus" : "0", "eSort" : "100417" },
    {"id":54,"stationCd" : "100418", "stationGrpCd" : "1123185", "stationName" : "盛岡", "stationNameK" : "モリオカ", "stationNameR" : "Morioka", "lineCd" : "1004", "prefCd" : "3", "lon" : "141.136369", "lat" : "39.701683", "openYMD" : "1890-11-01", "closeYMD" : "0000-00-00", "eStatus" : "0", "eSort" : "100418" },
    {"id":55,"stationCd" : "100419", "stationGrpCd" : "9920509", "stationName" : "いわて沼宮内", "stationNameK" : "イワテヌマクナイ", "stationNameR" : "Iwate-Numakunai", "lineCd" : "1004", "prefCd" : "3", "lon" : "141.217655", "lat" : "39.960853", "openYMD" : "1891-09-01", "closeYMD" : "0000-00-00", "eStatus" : "0", "eSort" : "100419" },
    {"id":56,"stationCd" : "100420", "stationGrpCd" : "9920515", "stationName" : "二戸", "stationNameK" : "ニノヘ", "stationNameR" : "Ninohe", "lineCd" : "1004", "prefCd" : "3", "lon" : "141.285655", "lat" : "40.259881", "openYMD" : "1891-12-20", "closeYMD" : "0000-00-00", "eStatus" : "0", "eSort" : "100420" },
    {"id":57,"stationCd" : "100421", "stationGrpCd" : "1120601", "stationName" : "八戸", "stationNameK" : "ハチノヘ", "stationNameR" : "Hachinohe", "lineCd" : "1004", "prefCd" : "2", "lon" : "141.431468", "lat" : "40.509161", "openYMD" : "0000-00-00", "closeYMD" : "0000-00-00", "eStatus" : "0", "eSort" : "100421" },
    {"id":58,"stationCd" : "100422", "stationGrpCd" : "100422", "stationName" : "七戸十和田", "stationNameK" : "シチノヘトワダ", "stationNameR" : "Shichinohe-Towada", "lineCd" : "1004", "prefCd" : "2", "lon" : "141.153948", "lat" : "40.719917", "openYMD" : "2010-12-04", "closeYMD" : "0000-00-00", "eStatus" : "0", "eSort" : "100422" },
    {"id":59,"stationCd" : "100423", "stationGrpCd" : "1120265", "stationName" : "新青森", "stationNameK" : "シンアオモリ", "stationNameR" : "Shin-Aomori", "lineCd" : "1004", "prefCd" : "2", "lon" : "140.693472", "lat" : "40.8275", "openYMD" : "2016-03-26", "closeYMD" : "0000-00-00", "eStatus" : "0", "eSort" : "100423" },
    {"id":60,"stationCd" : "100501", "stationGrpCd" : "1130101", "stationName" : "東京", "stationNameK" : "トウキョウ", "stationNameR" : "Tokyo", "lineCd" : "1005", "prefCd" : "13", "lon" : "139.766084", "lat" : "35.681382", "openYMD" : "1914-12-20", "closeYMD" : "0000-00-00", "eStatus" : "0", "eSort" : "100501" },
    {"id":61,"stationCd" : "100502", "stationGrpCd" : "1130220", "stationName" : "上野", "stationNameK" : "ウエノ", "stationNameR" : "Ueno", "lineCd" : "1005", "prefCd" : "13", "lon" : "139.777254", "lat" : "35.713768", "openYMD" : "1883-07-28", "closeYMD" : "0000-00-00", "eStatus" : "0", "eSort" : "100502" },
    {"id":62,"stationCd" : "100503", "stationGrpCd" : "1131906", "stationName" : "大宮", "stationNameK" : "オオミヤ", "stationNameR" : "Omiya", "lineCd" : "1005", "prefCd" : "11", "lon" : "139.624", "lat" : "35.906206", "openYMD" : "1885-03-16", "closeYMD" : "0000-00-00", "eStatus" : "0", "eSort" : "100503" },
    {"id":63,"stationCd" : "100504", "stationGrpCd" : "1132316", "stationName" : "熊谷", "stationNameK" : "クマガヤ", "stationNameR" : "Kumagaya", "lineCd" : "1005", "prefCd" : "11", "lon" : "139.389942", "lat" : "36.139702", "openYMD" : "1883-07-28", "closeYMD" : "0000-00-00", "eStatus" : "0", "eSort" : "100504" },
    {"id":64,"stationCd" : "100505", "stationGrpCd" : "100505", "stationName" : "本庄早稲田", "stationNameK" : "ホンジョウワセダ", "stationNameR" : "Honjowaseda", "lineCd" : "1005", "prefCd" : "11", "lon" : "139.179739", "lat" : "36.218575", "openYMD" : "2004-03-13", "closeYMD" : "0000-00-00", "eStatus" : "0", "eSort" : "100505" },
    {"id":65,"stationCd" : "100506", "stationGrpCd" : "1131816", "stationName" : "高崎", "stationNameK" : "タカサキ", "stationNameR" : "Takasaki", "lineCd" : "1005", "prefCd" : "10", "lon" : "139.013057", "lat" : "36.322356", "openYMD" : "1884-05-01", "closeYMD" : "0000-00-00", "eStatus" : "0", "eSort" : "100506" },
    {"id":66,"stationCd" : "100507", "stationGrpCd" : "100507", "stationName" : "上毛高原", "stationNameK" : "ジョウモウコウゲン", "stationNameR" : "Jomo-Kogen", "lineCd" : "1005", "prefCd" : "10", "lon" : "138.977579", "lat" : "36.693128", "openYMD" : "1982-11-15", "closeYMD" : "0000-00-00", "eStatus" : "0", "eSort" : "100507" },
    {"id":67,"stationCd" : "100508", "stationGrpCd" : "1134220", "stationName" : "越後湯沢", "stationNameK" : "エチゴユザワ", "stationNameR" : "Echigo-Yuzawa", "lineCd" : "1005", "prefCd" : "15", "lon" : "138.809891", "lat" : "36.93611", "openYMD" : "1925-11-01", "closeYMD" : "0000-00-00", "eStatus" : "0", "eSort" : "100508" },
    {"id":68,"stationCd" : "100509", "stationGrpCd" : "1134227", "stationName" : "浦佐", "stationNameK" : "ウラサ", "stationNameR" : "Urasa", "lineCd" : "1005", "prefCd" : "15", "lon" : "138.922703", "lat" : "37.167591", "openYMD" : "1923-09-01", "closeYMD" : "0000-00-00", "eStatus" : "0", "eSort" : "100509" },
    {"id":69,"stationCd" : "100510", "stationGrpCd" : "1134236", "stationName" : "長岡", "stationNameK" : "ナガオカ", "stationNameR" : "Nagaoka", "lineCd" : "1005", "prefCd" : "15", "lon" : "138.853927", "lat" : "37.447787", "openYMD" : "1898-06-16", "closeYMD" : "0000-00-00", "eStatus" : "0", "eSort" : "100510" },
    {"id":70,"stationCd" : "100511", "stationGrpCd" : "1141006", "stationName" : "燕三条", "stationNameK" : "ツバメサンジョウ", "stationNameR" : "Tsubame-Sanjo", "lineCd" : "1005", "prefCd" : "15", "lon" : "138.93873", "lat" : "37.647752", "openYMD" : "1982-11-15", "closeYMD" : "0000-00-00", "eStatus" : "0", "eSort" : "100511" },
    {"id":71,"stationCd" : "100512", "stationGrpCd" : "1140442", "stationName" : "新潟", "stationNameK" : "ニイガタ", "stationNameR" : "Niigata", "lineCd" : "1005", "prefCd" : "15", "lon" : "139.061883", "lat" : "37.912027", "openYMD" : "1904-05-03", "closeYMD" : "0000-00-00", "eStatus" : "0", "eSort" : "100512" },
    {"id":72,"stationCd" : "100601", "stationGrpCd" : "1134220", "stationName" : "越後湯沢", "stationNameK" : "エチゴユザワ", "stationNameR" : "Echigo-Yuzawa", "lineCd" : "1006", "prefCd" : "15", "lon" : "138.809891", "lat" : "36.93611", "openYMD" : "1925-11-01", "closeYMD" : "0000-00-00", "eStatus" : "0", "eSort" : "100601" },
    {"id":73,"stationCd" : "100602", "stationGrpCd" : "100602", "stationName" : "ガーラ湯沢", "stationNameK" : "ガーラユザワ", "stationNameR" : "Gala Yuzawa", "lineCd" : "1006", "prefCd" : "15", "lon" : "138.799528", "lat" : "36.950889", "openYMD" : "1990-12-20", "closeYMD" : "0000-00-00", "eStatus" : "0", "eSort" : "100602" },
    {"id":74,"stationCd" : "100701", "stationGrpCd" : "1130101", "stationName" : "東京", "stationNameK" : "トウキョウ", "stationNameR" : "Tokyo", "lineCd" : "1007", "prefCd" : "13", "lon" : "139.766084", "lat" : "35.681382", "openYMD" : "1914-12-20", "closeYMD" : "0000-00-00", "eStatus" : "0", "eSort" : "100701" },
    {"id":75,"stationCd" : "100702", "stationGrpCd" : "1130220", "stationName" : "上野", "stationNameK" : "ウエノ", "stationNameR" : "Ueno", "lineCd" : "1007", "prefCd" : "13", "lon" : "139.777254", "lat" : "35.713768", "openYMD" : "1883-07-28", "closeYMD" : "0000-00-00", "eStatus" : "0", "eSort" : "100702" },
    {"id":76,"stationCd" : "100703", "stationGrpCd" : "1131906", "stationName" : "大宮", "stationNameK" : "オオミヤ", "stationNameR" : "Omiya", "lineCd" : "1007", "prefCd" : "11", "lon" : "139.624", "lat" : "35.906206", "openYMD" : "1885-03-16", "closeYMD" : "0000-00-00", "eStatus" : "0", "eSort" : "100703" },
    {"id":77,"stationCd" : "100704", "stationGrpCd" : "1131918", "stationName" : "小山", "stationNameK" : "オヤマ", "stationNameR" : "Oyama", "lineCd" : "1007", "prefCd" : "9", "lon" : "139.80685", "lat" : "36.3142", "openYMD" : "0000-00-00", "closeYMD" : "0000-00-00", "eStatus" : "0", "eSort" : "100704" },
    {"id":78,"stationCd" : "100705", "stationGrpCd" : "1131923", "stationName" : "宇都宮", "stationNameK" : "ウツノミヤ", "stationNameR" : "Utsunomiya", "lineCd" : "1007", "prefCd" : "9", "lon" : "139.898283", "lat" : "36.558701", "openYMD" : "0000-00-00", "closeYMD" : "0000-00-00", "eStatus" : "0", "eSort" : "100705" },
    {"id":79,"stationCd" : "100706", "stationGrpCd" : "1131932", "stationName" : "那須塩原", "stationNameK" : "ナスシオバラ", "stationNameR" : "Nasushiobara", "lineCd" : "1007", "prefCd" : "9", "lon" : "140.020514", "lat" : "36.931772", "openYMD" : "0000-00-00", "closeYMD" : "0000-00-00", "eStatus" : "0", "eSort" : "100706" },
    {"id":80,"stationCd" : "100707", "stationGrpCd" : "1123106", "stationName" : "新白河", "stationNameK" : "シンシラカワ", "stationNameR" : "Shin-Shirakawa", "lineCd" : "1007", "prefCd" : "7", "lon" : "140.188998", "lat" : "37.123281", "openYMD" : "1944-10-11", "closeYMD" : "0000-00-00", "eStatus" : "0", "eSort" : "100707" },
    {"id":81,"stationCd" : "100708", "stationGrpCd" : "1123114", "stationName" : "郡山", "stationNameK" : "コオリヤマ", "stationNameR" : "Koriyama", "lineCd" : "1007", "prefCd" : "7", "lon" : "140.388412", "lat" : "37.397983", "openYMD" : "1887-07-16", "closeYMD" : "0000-00-00", "eStatus" : "0", "eSort" : "100708" },
    {"id":82,"stationCd" : "100709", "stationGrpCd" : "1123124", "stationName" : "福島", "stationNameK" : "フクシマ", "stationNameR" : "Fukushima", "lineCd" : "1007", "prefCd" : "7", "lon" : "140.458724", "lat" : "37.754311", "openYMD" : "1887-12-15", "closeYMD" : "0000-00-00", "eStatus" : "0", "eSort" : "100709" },
    {"id":83,"stationCd" : "100710", "stationGrpCd" : "1121609", "stationName" : "米沢", "stationNameK" : "ヨネザワ", "stationNameR" : "Yonezawa", "lineCd" : "1007", "prefCd" : "6", "lon" : "140.128087", "lat" : "37.909639", "openYMD" : "1899-05-15", "closeYMD" : "0000-00-00", "eStatus" : "0", "eSort" : "100710" },
    {"id":84,"stationCd" : "100711", "stationGrpCd" : "1121611", "stationName" : "高畠", "stationNameK" : "タカハタ", "stationNameR" : "Takahata", "lineCd" : "1007", "prefCd" : "6", "lon" : "140.153149", "lat" : "37.992595", "openYMD" : "1900-04-21", "closeYMD" : "0000-00-00", "eStatus" : "0", "eSort" : "100711" },
    {"id":85,"stationCd" : "100712", "stationGrpCd" : "1121612", "stationName" : "赤湯", "stationNameK" : "アカユ", "stationNameR" : "Akayu", "lineCd" : "1007", "prefCd" : "6", "lon" : "140.149192", "lat" : "38.047214", "openYMD" : "1900-04-21", "closeYMD" : "0000-00-00", "eStatus" : "0", "eSort" : "100712" },
    {"id":86,"stationCd" : "100713", "stationGrpCd" : "1121615", "stationName" : "かみのやま温泉", "stationNameK" : "カミノヤマオンセン", "stationNameR" : "Kaminoyamaonsen", "lineCd" : "1007", "prefCd" : "6", "lon" : "140.278431", "lat" : "38.152093", "openYMD" : "1901-02-15", "closeYMD" : "0000-00-00", "eStatus" : "0", "eSort" : "100713" },
    {"id":87,"stationCd" : "100714", "stationGrpCd" : "1121618", "stationName" : "山形", "stationNameK" : "ヤマガタ", "stationNameR" : "Yamagata", "lineCd" : "1007", "prefCd" : "6", "lon" : "140.327536", "lat" : "38.248645", "openYMD" : "1901-04-11", "closeYMD" : "0000-00-00", "eStatus" : "0", "eSort" : "100714" },
    {"id":88,"stationCd" : "100715", "stationGrpCd" : "1121624", "stationName" : "天童", "stationNameK" : "テンドウ", "stationNameR" : "Tendo", "lineCd" : "1007", "prefCd" : "6", "lon" : "140.369612", "lat" : "38.36002", "openYMD" : "1901-08-23", "closeYMD" : "0000-00-00", "eStatus" : "0", "eSort" : "100715" },
    {"id":89,"stationCd" : "100716", "stationGrpCd" : "1121627", "stationName" : "さくらんぼ東根", "stationNameK" : "サクランボヒガシネ", "stationNameR" : "Sakurambohigashine", "lineCd" : "1007", "prefCd" : "6", "lon" : "140.381055", "lat" : "38.428363", "openYMD" : "1999-12-04", "closeYMD" : "0000-00-00", "eStatus" : "0", "eSort" : "100716" },
    {"id":90,"stationCd" : "100717", "stationGrpCd" : "1121629", "stationName" : "村山", "stationNameK" : "ムラヤマ", "stationNameR" : "Murayama", "lineCd" : "1007", "prefCd" : "6", "lon" : "140.386355", "lat" : "38.477153", "openYMD" : "1901-08-23", "closeYMD" : "0000-00-00", "eStatus" : "0", "eSort" : "100717" },
    {"id":91,"stationCd" : "100718", "stationGrpCd" : "1121631", "stationName" : "大石田", "stationNameK" : "オオイシダ", "stationNameR" : "Oishida", "lineCd" : "1007", "prefCd" : "6", "lon" : "140.375269", "lat" : "38.595724", "openYMD" : "1901-10-21", "closeYMD" : "0000-00-00", "eStatus" : "0", "eSort" : "100718" },
    {"id":92,"stationCd" : "100719", "stationGrpCd" : "1120201", "stationName" : "新庄", "stationNameK" : "シンジョウ", "stationNameR" : "Shinjo", "lineCd" : "1007", "prefCd" : "6", "lon" : "140.305792", "lat" : "38.762249", "openYMD" : "1903-06-11", "closeYMD" : "0000-00-00", "eStatus" : "0", "eSort" : "100719" },
    {"id":93,"stationCd" : "100801", "stationGrpCd" : "1130101", "stationName" : "東京", "stationNameK" : "トウキョウ", "stationNameR" : "Tokyo", "lineCd" : "1008", "prefCd" : "13", "lon" : "139.766084", "lat" : "35.681382", "openYMD" : "1914-12-20", "closeYMD" : "0000-00-00", "eStatus" : "0", "eSort" : "100801" },
    {"id":94,"stationCd" : "100802", "stationGrpCd" : "1130220", "stationName" : "上野", "stationNameK" : "ウエノ", "stationNameR" : "Ueno", "lineCd" : "1008", "prefCd" : "13", "lon" : "139.777254", "lat" : "35.713768", "openYMD" : "1883-07-28", "closeYMD" : "0000-00-00", "eStatus" : "0", "eSort" : "100802" },
    {"id":95,"stationCd" : "100803", "stationGrpCd" : "1131906", "stationName" : "大宮", "stationNameK" : "オオミヤ", "stationNameR" : "Omiya", "lineCd" : "1008", "prefCd" : "11", "lon" : "139.624", "lat" : "35.906206", "openYMD" : "1885-03-16", "closeYMD" : "0000-00-00", "eStatus" : "0", "eSort" : "100803" },
    {"id":96,"stationCd" : "100804", "stationGrpCd" : "1131918", "stationName" : "小山", "stationNameK" : "オヤマ", "stationNameR" : "Oyama", "lineCd" : "1008", "prefCd" : "9", "lon" : "139.80685", "lat" : "36.3142", "openYMD" : "0000-00-00", "closeYMD" : "0000-00-00", "eStatus" : "0", "eSort" : "100804" },
    {"id":97,"stationCd" : "100805", "stationGrpCd" : "1131923", "stationName" : "宇都宮", "stationNameK" : "ウツノミヤ", "stationNameR" : "Utsunomiya", "lineCd" : "1008", "prefCd" : "9", "lon" : "139.898283", "lat" : "36.558701", "openYMD" : "0000-00-00", "closeYMD" : "0000-00-00", "eStatus" : "0", "eSort" : "100805" },
    {"id":98,"stationCd" : "100806", "stationGrpCd" : "1131932", "stationName" : "那須塩原", "stationNameK" : "ナスシオバラ", "stationNameR" : "Nasushiobara", "lineCd" : "1008", "prefCd" : "9", "lon" : "140.020514", "lat" : "36.931772", "openYMD" : "0000-00-00", "closeYMD" : "0000-00-00", "eStatus" : "0", "eSort" : "100806" },
    {"id":99,"stationCd" : "100807", "stationGrpCd" : "1123106", "stationName" : "新白河", "stationNameK" : "シンシラカワ", "stationNameR" : "Shin-Shirakawa", "lineCd" : "1008", "prefCd" : "7", "lon" : "140.188998", "lat" : "37.123281", "openYMD" : "1944-10-11", "closeYMD" : "0000-00-00", "eStatus" : "0", "eSort" : "100807" },
    {"id":100,"stationCd" : "100808", "stationGrpCd" : "1123114", "stationName" : "郡山", "stationNameK" : "コオリヤマ", "stationNameR" : "Koriyama", "lineCd" : "1008", "prefCd" : "7", "lon" : "140.388412", "lat" : "37.397983", "openYMD" : "1887-07-16", "closeYMD" : "0000-00-00", "eStatus" : "0", "eSort" : "100808" },
    {"id":101,"stationCd" : "100809", "stationGrpCd" : "1123124", "stationName" : "福島", "stationNameK" : "フクシマ", "stationNameR" : "Fukushima", "lineCd" : "1008", "prefCd" : "7", "lon" : "140.458724", "lat" : "37.754311", "openYMD" : "1887-12-15", "closeYMD" : "0000-00-00", "eStatus" : "0", "eSort" : "100809" },
    {"id":102,"stationCd" : "100810", "stationGrpCd" : "100410", "stationName" : "白石蔵王", "stationNameK" : "シロイシザオウ", "stationNameR" : "Shiroishizao", "lineCd" : "1008", "prefCd" : "4", "lon" : "140.633035", "lat" : "37.995485", "openYMD" : "1982-06-23", "closeYMD" : "0000-00-00", "eStatus" : "0", "eSort" : "100810" },
    {"id":103,"stationCd" : "100811", "stationGrpCd" : "1123143", "stationName" : "仙台", "stationNameK" : "センダイ", "stationNameR" : "Sendai", "lineCd" : "1008", "prefCd" : "4", "lon" : "140.882244", "lat" : "38.260286", "openYMD" : "1887-12-15", "closeYMD" : "0000-00-00", "eStatus" : "0", "eSort" : "100811" },
    {"id":104,"stationCd" : "100812", "stationGrpCd" : "1122104", "stationName" : "古川", "stationNameK" : "フルカワ", "stationNameR" : "Furukawa", "lineCd" : "1008", "prefCd" : "4", "lon" : "140.967832", "lat" : "38.57092", "openYMD" : "1913-04-20", "closeYMD" : "0000-00-00", "eStatus" : "0", "eSort" : "100812" },
    {"id":105,"stationCd" : "100813", "stationGrpCd" : "100413", "stationName" : "くりこま高原", "stationNameK" : "クリコマコウゲン", "stationNameR" : "Kurikoma-Kogen", "lineCd" : "1008", "prefCd" : "4", "lon" : "141.071785", "lat" : "38.74893", "openYMD" : "1990-03-10", "closeYMD" : "0000-00-00", "eStatus" : "0", "eSort" : "100813" },
    {"id":106,"stationCd" : "100814", "stationGrpCd" : "1123166", "stationName" : "一ノ関", "stationNameK" : "イチノセキ", "stationNameR" : "Ichinoseki", "lineCd" : "1008", "prefCd" : "3", "lon" : "141.13889", "lat" : "38.92608", "openYMD" : "1890-04-16", "closeYMD" : "0000-00-00", "eStatus" : "0", "eSort" : "100814" },
    {"id":107,"stationCd" : "100815", "stationGrpCd" : "100415", "stationName" : "水沢江刺", "stationNameK" : "ミズサワエサシ", "stationNameR" : "Mizusawa Esashi", "lineCd" : "1008", "prefCd" : "3", "lon" : "141.188803", "lat" : "39.145194", "openYMD" : "1985-03-14", "closeYMD" : "0000-00-00", "eStatus" : "0", "eSort" : "100815" },
    {"id":108,"stationCd" : "100816", "stationGrpCd" : "1123174", "stationName" : "北上", "stationNameK" : "キタカミ", "stationNameR" : "Kitakami", "lineCd" : "1008", "prefCd" : "3", "lon" : "141.122598", "lat" : "39.282229", "openYMD" : "1890-11-01", "closeYMD" : "0000-00-00", "eStatus" : "0", "eSort" : "100816" },
    {"id":109,"stationCd" : "100817", "stationGrpCd" : "1120903", "stationName" : "新花巻", "stationNameK" : "シンハナマキ", "stationNameR" : "Shin-Hanamaki", "lineCd" : "1008", "prefCd" : "3", "lon" : "141.173715", "lat" : "39.406453", "openYMD" : "1985-03-14", "closeYMD" : "0000-00-00", "eStatus" : "0", "eSort" : "100817" },
    {"id":110,"stationCd" : "100818", "stationGrpCd" : "1123185", "stationName" : "盛岡", "stationNameK" : "モリオカ", "stationNameR" : "Morioka", "lineCd" : "1008", "prefCd" : "3", "lon" : "141.136369", "lat" : "39.701683", "openYMD" : "1890-11-01", "closeYMD" : "0000-00-00", "eStatus" : "0", "eSort" : "100818" },
    {"id":111,"stationCd" : "100819", "stationGrpCd" : "1121104", "stationName" : "雫石", "stationNameK" : "シズクイシ", "stationNameR" : "Shizukuishi", "lineCd" : "1008", "prefCd" : "3", "lon" : "140.974848", "lat" : "39.689352", "openYMD" : "1921-06-25", "closeYMD" : "0000-00-00", "eStatus" : "0", "eSort" : "100819" },
    {"id":112,"stationCd" : "100820", "stationGrpCd" : "1121107", "stationName" : "田沢湖", "stationNameK" : "タザワコ", "stationNameR" : "Tazawako", "lineCd" : "1008", "prefCd" : "5", "lon" : "140.722419", "lat" : "39.700272", "openYMD" : "1923-08-31", "closeYMD" : "0000-00-00", "eStatus" : "0", "eSort" : "100820" },
    {"id":113,"stationCd" : "100821", "stationGrpCd" : "1121111", "stationName" : "角館", "stationNameK" : "カクノダテ", "stationNameR" : "Kakunodate", "lineCd" : "1008", "prefCd" : "5", "lon" : "140.570988", "lat" : "39.591716", "openYMD" : "1921-07-30", "closeYMD" : "0000-00-00", "eStatus" : "0", "eSort" : "100821" },
    {"id":114,"stationCd" : "100822", "stationGrpCd" : "1120220", "stationName" : "大曲", "stationNameK" : "オオマガリ", "stationNameR" : "Omagari", "lineCd" : "1008", "prefCd" : "5", "lon" : "140.479732", "lat" : "39.465454", "openYMD" : "1904-12-21", "closeYMD" : "0000-00-00", "eStatus" : "0", "eSort" : "100822" },
    {"id":115,"stationCd" : "100823", "stationGrpCd" : "1120228", "stationName" : "秋田", "stationNameK" : "アキタ", "stationNameR" : "Akita", "lineCd" : "1008", "prefCd" : "5", "lon" : "140.129743", "lat" : "39.716845", "openYMD" : "1902-10-21", "closeYMD" : "0000-00-00", "eStatus" : "0", "eSort" : "100823" },
    {"id":116,"stationCd" : "100901", "stationGrpCd" : "1130101", "stationName" : "東京", "stationNameK" : "トウキョウ", "stationNameR" : "Tokyo", "lineCd" : "1009", "prefCd" : "13", "lon" : "139.766084", "lat" : "35.681382", "openYMD" : "1914-12-20", "closeYMD" : "0000-00-00", "eStatus" : "0", "eSort" : "100901" },
    {"id":117,"stationCd" : "100902", "stationGrpCd" : "1130220", "stationName" : "上野", "stationNameK" : "ウエノ", "stationNameR" : "Ueno", "lineCd" : "1009", "prefCd" : "13", "lon" : "139.777254", "lat" : "35.713768", "openYMD" : "1883-07-28", "closeYMD" : "0000-00-00", "eStatus" : "0", "eSort" : "100902" },
    {"id":118,"stationCd" : "100903", "stationGrpCd" : "1131906", "stationName" : "大宮", "stationNameK" : "オオミヤ", "stationNameR" : "Omiya", "lineCd" : "1009", "prefCd" : "11", "lon" : "139.624", "lat" : "35.906206", "openYMD" : "1885-03-16", "closeYMD" : "0000-00-00", "eStatus" : "0", "eSort" : "100903" },
    {"id":119,"stationCd" : "100904", "stationGrpCd" : "1132316", "stationName" : "熊谷", "stationNameK" : "クマガヤ", "stationNameR" : "Kumagaya", "lineCd" : "1009", "prefCd" : "11", "lon" : "139.389942", "lat" : "36.139702", "openYMD" : "1883-07-28", "closeYMD" : "0000-00-00", "eStatus" : "0", "eSort" : "100904" },
    {"id":120,"stationCd" : "100905", "stationGrpCd" : "100505", "stationName" : "本庄早稲田", "stationNameK" : "ホンジョウワセダ", "stationNameR" : "Honjowaseda", "lineCd" : "1009", "prefCd" : "11", "lon" : "139.179739", "lat" : "36.218575", "openYMD" : "2004-03-13", "closeYMD" : "0000-00-00", "eStatus" : "0", "eSort" : "100905" },
    {"id":121,"stationCd" : "100906", "stationGrpCd" : "1131816", "stationName" : "高崎", "stationNameK" : "タカサキ", "stationNameR" : "Takasaki", "lineCd" : "1009", "prefCd" : "10", "lon" : "139.013057", "lat" : "36.322356", "openYMD" : "1884-05-01", "closeYMD" : "0000-00-00", "eStatus" : "0", "eSort" : "100906" },
    {"id":122,"stationCd" : "100907", "stationGrpCd" : "100907", "stationName" : "安中榛名", "stationNameK" : "アンナカハルナ", "stationNameR" : "Annakaharuna", "lineCd" : "1009", "prefCd" : "10", "lon" : "138.849589", "lat" : "36.362408", "openYMD" : "1997-10-01", "closeYMD" : "0000-00-00", "eStatus" : "0", "eSort" : "100907" },
    {"id":123,"stationCd" : "100908", "stationGrpCd" : "9940301", "stationName" : "軽井沢", "stationNameK" : "カルイザワ", "stationNameR" : "Karuizawa", "lineCd" : "1009", "prefCd" : "20", "lon" : "138.635062", "lat" : "36.34255", "openYMD" : "0000-00-00", "closeYMD" : "0000-00-00", "eStatus" : "0", "eSort" : "100908" },
    {"id":124,"stationCd" : "100909", "stationGrpCd" : "1140125", "stationName" : "佐久平", "stationNameK" : "サクダイラ", "stationNameR" : "Sakudaira", "lineCd" : "1009", "prefCd" : "20", "lon" : "138.464339", "lat" : "36.277898", "openYMD" : "1997-10-01", "closeYMD" : "0000-00-00", "eStatus" : "0", "eSort" : "100909" },
    {"id":125,"stationCd" : "100910", "stationGrpCd" : "9940311", "stationName" : "上田", "stationNameK" : "ウエダ", "stationNameR" : "Ueda", "lineCd" : "1009", "prefCd" : "20", "lon" : "138.249736", "lat" : "36.396498", "openYMD" : "1888-08-15", "closeYMD" : "0000-00-00", "eStatus" : "0", "eSort" : "100910" },
    {"id":126,"stationCd" : "100911", "stationGrpCd" : "1140305", "stationName" : "長野", "stationNameK" : "ナガノ", "stationNameR" : "Nagano", "lineCd" : "1009", "prefCd" : "20", "lon" : "138.188686", "lat" : "36.643", "openYMD" : "1888-05-01", "closeYMD" : "0000-00-00", "eStatus" : "0", "eSort" : "100911" },
    {"id":127,"stationCd" : "100912", "stationGrpCd" : "1140710", "stationName" : "飯山", "stationNameK" : "イイヤマ", "stationNameR" : "Iiyama", "lineCd" : "1009", "prefCd" : "20", "lon" : "138.358596", "lat" : "36.84562", "openYMD" : "2015-03-14", "closeYMD" : "0000-00-00", "eStatus" : "0", "eSort" : "100912" },
    {"id":128,"stationCd" : "100913", "stationGrpCd" : "1140317", "stationName" : "上越妙高", "stationNameK" : "ジョウエツミョウコウ", "stationNameR" : "jouetsumyoukou", "lineCd" : "1009", "prefCd" : "15", "lon" : "138.2484867", "lat" : "37.08135716", "openYMD" : "2015-03-14", "closeYMD" : "0000-00-00", "eStatus" : "0", "eSort" : "100913" },
    {"id":129,"stationCd" : "100914", "stationGrpCd" : "1140516", "stationName" : "糸魚川", "stationNameK" : "イトイガワ", "stationNameR" : "Itoigawa", "lineCd" : "1009", "prefCd" : "15", "lon" : "137.8615099", "lat" : "37.04330468", "openYMD" : "2015-03-14", "closeYMD" : "0000-00-00", "eStatus" : "0", "eSort" : "100914" },
    {"id":130,"stationCd" : "100915", "stationGrpCd" : "100915", "stationName" : "黒部宇奈月温泉", "stationNameK" : "クロベウナヅキオンセン", "stationNameR" : "Kurobe-Unazukionsen", "lineCd" : "1009", "prefCd" : "16", "lon" : "137.4801774", "lat" : "36.87316273", "openYMD" : "2015-03-14", "closeYMD" : "0000-00-00", "eStatus" : "0", "eSort" : "100915" },
    {"id":131,"stationCd" : "100916", "stationGrpCd" : "1140501", "stationName" : "富山", "stationNameK" : "トヤマ", "stationNameR" : "Toyama", "lineCd" : "1009", "prefCd" : "16", "lon" : "137.213141", "lat" : "36.701653", "openYMD" : "2015-03-14", "closeYMD" : "0000-00-00", "eStatus" : "0", "eSort" : "100916" },
    {"id":132,"stationCd" : "100917", "stationGrpCd" : "100917", "stationName" : "新高岡", "stationNameK" : "シンタカオカ", "stationNameR" : "Shin-Takaoka", "lineCd" : "1009", "prefCd" : "16", "lon" : "137.010459", "lat" : "36.727004", "openYMD" : "2015-03-14", "closeYMD" : "0000-00-00", "eStatus" : "0", "eSort" : "100917" },
    {"id":133,"stationCd" : "100918", "stationGrpCd" : "1141543", "stationName" : "金沢", "stationNameK" : "カナザワ", "stationNameR" : "Kanazawa", "lineCd" : "1009", "prefCd" : "17", "lon" : "136.648166", "lat" : "36.578117", "openYMD" : "2015-03-14", "closeYMD" : "0000-00-00", "eStatus" : "0", "eSort" : "100918" },
    {"id":134,"stationCd" : "100919", "stationGrpCd" : "1141534", "stationName" : "小松", "stationNameK" : "コマツ", "stationNameR" : "Komatsu", "lineCd" : "1009", "prefCd" : "17", "lon" : "136.452742", "lat" : "36.401889", "openYMD" : "2014-03-16", "closeYMD" : "0000-00-00", "eStatus" : "0", "eSort" : "100919" },
    {"id":135,"stationCd" : "100920", "stationGrpCd" : "1141531", "stationName" : "加賀温泉", "stationNameK" : "カガオンセン", "stationNameR" : "Kagaonsen", "lineCd" : "1009", "prefCd" : "17", "lon" : "136.350492", "lat" : "36.320328", "openYMD" : "2014-03-16", "closeYMD" : "0000-00-00", "eStatus" : "0", "eSort" : "100920" },
    {"id":136,"stationCd" : "100921", "stationGrpCd" : "1141527", "stationName" : "芦原温泉", "stationNameK" : "アワラオンセン", "stationNameR" : "Awaraonsen", "lineCd" : "1009", "prefCd" : "18", "lon" : "136.235", "lat" : "36.214444", "openYMD" : "2014-03-16", "closeYMD" : "0000-00-00", "eStatus" : "0", "eSort" : "100921" },
    {"id":137,"stationCd" : "100922", "stationGrpCd" : "1141523", "stationName" : "福井", "stationNameK" : "フクイ", "stationNameR" : "Fukui", "lineCd" : "1009", "prefCd" : "18", "lon" : "136.223333", "lat" : "36.062083", "openYMD" : "2014-03-16", "closeYMD" : "0000-00-00", "eStatus" : "0", "eSort" : "100922" },
    {"id":138,"stationCd" : "100923", "stationGrpCd" : "100923", "stationName" : "越前たけふ", "stationNameK" : "エチゼンタケフ", "stationNameR" : "Echizen-Takefu", "lineCd" : "1009", "prefCd" : "18", "lon" : "136.198889", "lat" : "35.895667", "openYMD" : "2014-03-16", "closeYMD" : "0000-00-00", "eStatus" : "0", "eSort" : "100923" },
    {"id":139,"stationCd" : "100924", "stationGrpCd" : "1141512", "stationName" : "敦賀", "stationNameK" : "ツルガ", "stationNameR" : "Tsuruga", "lineCd" : "1009", "prefCd" : "18", "lon" : "136.076294", "lat" : "35.645161", "openYMD" : "2014-03-16", "closeYMD" : "0000-00-00", "eStatus" : "0", "eSort" : "100924" },
    {"id":140,"stationCd" : "101001", "stationGrpCd" : "1190101", "stationName" : "博多", "stationNameK" : "ハカタ", "stationNameR" : "Hakata", "lineCd" : "1010", "prefCd" : "40", "lon" : "130.420622", "lat" : "33.590002", "openYMD" : "1889-12-11", "closeYMD" : "0000-00-00", "eStatus" : "0", "eSort" : "101001" },
    {"id":141,"stationCd" : "101002", "stationGrpCd" : "1190542", "stationName" : "新鳥栖", "stationNameK" : "シントス", "stationNameR" : "Shin-Tosu", "lineCd" : "1010", "prefCd" : "41", "lon" : "130.491194", "lat" : "33.370194", "openYMD" : "2011-03-12", "closeYMD" : "0000-00-00", "eStatus" : "0", "eSort" : "101002" },
    {"id":142,"stationCd" : "101003", "stationGrpCd" : "1190318", "stationName" : "久留米", "stationNameK" : "クルメ", "stationNameR" : "Kurume", "lineCd" : "1010", "prefCd" : "40", "lon" : "130.501888", "lat" : "33.320409", "openYMD" : "1890-03-01", "closeYMD" : "0000-00-00", "eStatus" : "0", "eSort" : "101003" },
    {"id":143,"stationCd" : "101004", "stationGrpCd" : "1190322", "stationName" : "筑後船小屋", "stationNameK" : "チクゴフナゴヤ", "stationNameR" : "Chikugo-Funagoya", "lineCd" : "1010", "prefCd" : "40", "lon" : "130.492389", "lat" : "33.177917", "openYMD" : "1928-07-20", "closeYMD" : "0000-00-00", "eStatus" : "0", "eSort" : "101004" },
    {"id":144,"stationCd" : "101005", "stationGrpCd" : "101005", "stationName" : "新大牟田", "stationNameK" : "シンオオムタ", "stationNameR" : "Shin-Omuta", "lineCd" : "1010", "prefCd" : "40", "lon" : "130.48875", "lat" : "33.07125", "openYMD" : "2011-03-12", "closeYMD" : "0000-00-00", "eStatus" : "0", "eSort" : "101005" },
    {"id":145,"stationCd" : "101006", "stationGrpCd" : "101006", "stationName" : "新玉名", "stationNameK" : "シンタマナ", "stationNameR" : "Shin-Tamana", "lineCd" : "1010", "prefCd" : "43", "lon" : "130.573556", "lat" : "32.9425", "openYMD" : "2011-03-12", "closeYMD" : "0000-00-00", "eStatus" : "0", "eSort" : "101006" },
    {"id":146,"stationCd" : "101007", "stationGrpCd" : "1190341", "stationName" : "熊本", "stationNameK" : "クマモト", "stationNameR" : "Kumamoto", "lineCd" : "1010", "prefCd" : "43", "lon" : "130.689401", "lat" : "32.790065", "openYMD" : "1891-07-01", "closeYMD" : "0000-00-00", "eStatus" : "0", "eSort" : "101007" },
    {"id":147,"stationCd" : "101008", "stationGrpCd" : "1190348", "stationName" : "新八代", "stationNameK" : "シンヤツシロ", "stationNameR" : "Shin-Yatsushiro", "lineCd" : "1010", "prefCd" : "43", "lon" : "130.634938", "lat" : "32.517843", "openYMD" : "2004-03-13", "closeYMD" : "0000-00-00", "eStatus" : "0", "eSort" : "101008" },
    {"id":148,"stationCd" : "101009", "stationGrpCd" : "101009", "stationName" : "新水俣", "stationNameK" : "シンミナマタ", "stationNameR" : "Shin-Minamata", "lineCd" : "1010", "prefCd" : "43", "lon" : "130.42882", "lat" : "32.210736", "openYMD" : "2004-03-13", "closeYMD" : "0000-00-00", "eStatus" : "0", "eSort" : "101009" },
    {"id":149,"stationCd" : "101010", "stationGrpCd" : "101010", "stationName" : "出水", "stationNameK" : "イズミ", "stationNameR" : "Izumi", "lineCd" : "1010", "prefCd" : "46", "lon" : "130.35823", "lat" : "32.089586", "openYMD" : "1923-10-15", "closeYMD" : "0000-00-00", "eStatus" : "0", "eSort" : "101010" },
    {"id":150,"stationCd" : "101011", "stationGrpCd" : "1190401", "stationName" : "川内", "stationNameK" : "センダイ", "stationNameR" : "Sendai", "lineCd" : "1010", "prefCd" : "46", "lon" : "130.312083", "lat" : "31.813726", "openYMD" : "1914-06-01", "closeYMD" : "0000-00-00", "eStatus" : "0", "eSort" : "101011" },
    {"id":151,"stationCd" : "101012", "stationGrpCd" : "1190411", "stationName" : "鹿児島中央", "stationNameK" : "カゴシマチュウオウ", "stationNameR" : "Kagoshima-Chuo", "lineCd" : "1010", "prefCd" : "46", "lon" : "130.541245", "lat" : "31.583785", "openYMD" : "1913-10-11", "closeYMD" : "0000-00-00", "eStatus" : "0", "eSort" : "101012" },
    {"id":152,"stationCd" : "101101", "stationGrpCd" : "1120265", "stationName" : "新青森", "stationNameK" : "シンアオモリ", "stationNameR" : "Shin-Aomori", "lineCd" : "1011", "prefCd" : "2", "lon" : "140.693472", "lat" : "40.8275", "openYMD" : "1986-11-01", "closeYMD" : "0000-00-00", "eStatus" : "0", "eSort" : "101101" },
    {"id":153,"stationCd" : "101102", "stationGrpCd" : "1111802", "stationName" : "奥津軽いまべつ", "stationNameK" : "オクツガルイマベツ", "stationNameR" : "Okutsugaru-Imabetsu", "lineCd" : "1011", "prefCd" : "2", "lon" : "140.515453", "lat" : "41.145078", "openYMD" : "1986-11-01", "closeYMD" : "0000-00-00", "eStatus" : "0", "eSort" : "101102" },
    {"id":154,"stationCd" : "101103", "stationGrpCd" : "1111806", "stationName" : "木古内", "stationNameK" : "キコナイ", "stationNameR" : "kikonai", "lineCd" : "1011", "prefCd" : "1", "lon" : "140.4342735", "lat" : "41.67828093", "openYMD" : "1930-10-25", "closeYMD" : "0000-00-00", "eStatus" : "0", "eSort" : "101103" },
    {"id":155,"stationCd" : "101104", "stationGrpCd" : "1110106", "stationName" : "新函館北斗", "stationNameK" : "シンハコダテホクト", "stationNameR" : "Shin-Hakodate-Hokuto", "lineCd" : "1011", "prefCd" : "1", "lon" : "140.6475", "lat" : "41.905", "openYMD" : "1902-12-10", "closeYMD" : "0000-00-00", "eStatus" : "0", "eSort" : "101104" },
    {"id":156,"stationCd" : "101105", "stationGrpCd" : "101105", "stationName" : "新八雲", "stationNameK" : "シンヤクモ", "stationNameR" : "Shin-Yakumo", "lineCd" : "1011", "prefCd" : "1", "lon" : "140.23175", "lat" : "42.255333", "openYMD" : "0000-00-00", "closeYMD" : "0000-00-00", "eStatus" : "1", "eSort" : "101105" },
    {"id":157,"stationCd" : "101106", "stationGrpCd" : "1110138", "stationName" : "長万部", "stationNameK" : "オシャマンベ", "stationNameR" : "Oshamambe", "lineCd" : "1011", "prefCd" : "1", "lon" : "140.37507", "lat" : "42.512477", "openYMD" : "1903-11-03", "closeYMD" : "0000-00-00", "eStatus" : "1", "eSort" : "101106" },
    {"id":158,"stationCd" : "101107", "stationGrpCd" : "1110211", "stationName" : "倶知安", "stationNameK" : "クッチャン", "stationNameR" : "Kutchan", "lineCd" : "1011", "prefCd" : "1", "lon" : "140.745471", "lat" : "42.90164", "openYMD" : "1905-10-15", "closeYMD" : "0000-00-00", "eStatus" : "1", "eSort" : "101107" },
    {"id":159,"stationCd" : "101108", "stationGrpCd" : "1110211", "stationName" : "新小樽", "stationNameK" : "シンオタル", "stationNameR" : "Shin-otaru", "lineCd" : "1011", "prefCd" : "1", "lon" : "140.987944", "lat" : "43.162583", "openYMD" : "0000-00-00", "closeYMD" : "0000-00-00", "eStatus" : "1", "eSort" : "101108" },
    {"id":160,"stationCd" : "101109", "stationGrpCd" : "1110315", "stationName" : "札幌", "stationNameK" : "サッポロ", "stationNameR" : "sapporo", "lineCd" : "1011", "prefCd" : "1", "lon" : "141.350768", "lat" : "43.068612", "openYMD" : "0000-00-00", "closeYMD" : "0000-00-00", "eStatus" : "1", "eSort" : "101109" },
    {"id":161,"stationCd" : "101201", "stationGrpCd" : "1191805", "stationName" : "武雄温泉", "stationNameK" : "タケオオンセン", "stationNameR" : "Takeo-Onsen", "lineCd" : "1012", "prefCd" : "41", "lon" : "130.0229", "lat" : "33.196289", "openYMD" : "1865-05-05", "closeYMD" : "0000-00-00", "eStatus" : "0", "eSort" : "101201" },
    {"id":162,"stationCd" : "101202", "stationGrpCd" : "101202", "stationName" : "嬉野温泉", "stationNameK" : "ウレシノオンセン", "stationNameR" : "Ureshino-Onsen", "lineCd" : "1012", "prefCd" : "41", "lon" : "129.998972", "lat" : "33.106556", "openYMD" : "2022-09-23", "closeYMD" : "0000-00-00", "eStatus" : "0", "eSort" : "101202" },
    {"id":163,"stationCd" : "101203", "stationGrpCd" : "1192215", "stationName" : "新大村", "stationNameK" : "シンオオムラ", "stationNameR" : "Shin-Omura", "lineCd" : "1012", "prefCd" : "42", "lon" : "129.956944", "lat" : "32.932778", "openYMD" : "2022-09-23", "closeYMD" : "0000-00-00", "eStatus" : "0", "eSort" : "101203" },
    {"id":164,"stationCd" : "101204", "stationGrpCd" : "1190527", "stationName" : "諫早", "stationNameK" : "イサハヤ", "stationNameR" : "Isahaya", "lineCd" : "1012", "prefCd" : "42", "lon" : "130.041472", "lat" : "32.851839", "openYMD" : "1898-11-27", "closeYMD" : "0000-00-00", "eStatus" : "0", "eSort" : "101204" },
    {"id":165,"stationCd" : "101205", "stationGrpCd" : "1190541", "stationName" : "長崎", "stationNameK" : "ナガサキ", "stationNameR" : "nagasaki", "lineCd" : "1012", "prefCd" : "42", "lon" : "129.869056", "lat" : "32.75275", "openYMD" : "0000-00-00", "closeYMD" : "0000-00-00", "eStatus" : "0", "eSort" : "101205" },
    {"id":166,"stationCd" : "1110101", "stationGrpCd" : "1110101", "stationName" : "函館", "stationNameK" : "ハコダテ", "stationNameR" : "hakodate", "lineCd" : "11101", "prefCd" : "1", "lon" : "140.726413", "lat" : "41.773709", "openYMD" : "1902-12-10", "closeYMD" : "0000-00-00", "eStatus" : "0", "eSort" : "1110101" },
    {"id":167,"stationCd" : "1110102", "stationGrpCd" : "1110102", "stationName" : "五稜郭", "stationNameK" : "ゴリョウカク", "stationNameR" : "goryoukaku", "lineCd" : "11101", "prefCd" : "1", "lon" : "140.733539", "lat" : "41.803557", "openYMD" : "0000-00-00", "closeYMD" : "0000-00-00", "eStatus" : "0", "eSort" : "1110102" },
    {"id":168,"stationCd" : "1110103", "stationGrpCd" : "1110103", "stationName" : "桔梗", "stationNameK" : "キキョウ", "stationNameR" : "kikyou", "lineCd" : "11101", "prefCd" : "1", "lon" : "140.722952", "lat" : "41.846457", "openYMD" : "1902-12-10", "closeYMD" : "0000-00-00", "eStatus" : "0", "eSort" : "1110103" },
    {"id":169,"stationCd" : "1110104", "stationGrpCd" : "1110104", "stationName" : "大中山", "stationNameK" : "オオナカヤマ", "stationNameR" : "oonakayama", "lineCd" : "11101", "prefCd" : "1", "lon" : "140.71358", "lat" : "41.864641", "openYMD" : "0000-00-00", "closeYMD" : "0000-00-00", "eStatus" : "0", "eSort" : "1110104" },
    {"id":170,"stationCd" : "1110105", "stationGrpCd" : "1110105", "stationName" : "七飯", "stationNameK" : "ナナエ", "stationNameR" : "nanae", "lineCd" : "11101", "prefCd" : "1", "lon" : "140.688556", "lat" : "41.886971", "openYMD" : "0000-00-00", "closeYMD" : "0000-00-00", "eStatus" : "0", "eSort" : "1110105" },
    {"id":171,"stationCd" : "1110106", "stationGrpCd" : "1110106", "stationName" : "新函館北斗", "stationNameK" : "シンハコダテホクト", "stationNameR" : "Shin-Hakodate-Hokuto", "lineCd" : "11101", "prefCd" : "1", "lon" : "140.646525", "lat" : "41.9054", "openYMD" : "1902-12-10", "closeYMD" : "0000-00-00", "eStatus" : "0", "eSort" : "1110106" },
    {"id":172,"stationCd" : "1110107", "stationGrpCd" : "1110107", "stationName" : "仁山", "stationNameK" : "ニヤマ", "stationNameR" : "niyama", "lineCd" : "11101", "prefCd" : "1", "lon" : "140.635183", "lat" : "41.930011", "openYMD" : "0000-00-00", "closeYMD" : "0000-00-00", "eStatus" : "0", "eSort" : "1110107" },
    {"id":173,"stationCd" : "1110108", "stationGrpCd" : "1110108", "stationName" : "大沼", "stationNameK" : "オオヌマ", "stationNameR" : "oonuma", "lineCd" : "11101", "prefCd" : "1", "lon" : "140.669347", "lat" : "41.971954", "openYMD" : "1903-06-28", "closeYMD" : "0000-00-00", "eStatus" : "0", "eSort" : "1110108" },
    {"id":174,"stationCd" : "1110109", "stationGrpCd" : "1110109", "stationName" : "大沼公園", "stationNameK" : "オオヌマコウエン", "stationNameR" : "Onumakoen", "lineCd" : "11101", "prefCd" : "1", "lon" : "140.669758", "lat" : "41.980958", "openYMD" : "1907-06-05", "closeYMD" : "0000-00-00", "eStatus" : "0", "eSort" : "1110109" },
    {"id":175,"stationCd" : "1110110", "stationGrpCd" : "1110110", "stationName" : "赤井川", "stationNameK" : "アカイガワ", "stationNameR" : "akaigawa", "lineCd" : "11101", "prefCd" : "1", "lon" : "140.642678", "lat" : "42.003267", "openYMD" : "0000-00-00", "closeYMD" : "0000-00-00", "eStatus" : "0", "eSort" : "1110110" },
    {"id":176,"stationCd" : "1110111", "stationGrpCd" : "1110111", "stationName" : "駒ケ岳", "stationNameK" : "コマガタケ", "stationNameR" : "komagatake", "lineCd" : "11101", "prefCd" : "1", "lon" : "140.610476", "lat" : "42.038809", "openYMD" : "0000-00-00", "closeYMD" : "0000-00-00", "eStatus" : "0", "eSort" : "1110111" },
    {"id":177,"stationCd" : "1110112", "stationGrpCd" : "1110112", "stationName" : "東山", "stationNameK" : "ヒガシヤマ", "stationNameR" : "higashiyama", "lineCd" : "11101", "prefCd" : "1", "lon" : "140.605222", "lat" : "42.06172", "openYMD" : "1943-02-26", "closeYMD" : "2017-03-04", "eStatus" : "2", "eSort" : "1110112" },
    {"id":178,"stationCd" : "1110113", "stationGrpCd" : "1110113", "stationName" : "姫川", "stationNameK" : "ヒメカワ", "stationNameR" : "himekawa", "lineCd" : "11101", "prefCd" : "1", "lon" : "140.591632", "lat" : "42.081312", "openYMD" : "1951-05-19", "closeYMD" : "2017-03-04", "eStatus" : "2", "eSort" : "1110113" },
    {"id":179,"stationCd" : "1110114", "stationGrpCd" : "1110114", "stationName" : "池田園", "stationNameK" : "イケダエン", "stationNameR" : "Ikedaen", "lineCd" : "11101", "prefCd" : "1", "lon" : "140.700333", "lat" : "41.990692", "openYMD" : "1945-06-01", "closeYMD" : "2022-03-12", "eStatus" : "2", "eSort" : "1110114" },
    {"id":180,"stationCd" : "1110115", "stationGrpCd" : "1110115", "stationName" : "流山温泉", "stationNameK" : "ナガレヤマオンセン", "stationNameR" : "Nagareyama Onsen", "lineCd" : "11101", "prefCd" : "1", "lon" : "140.716358", "lat" : "42.003483", "openYMD" : "2002-04-27", "closeYMD" : "2022-03-12", "eStatus" : "2", "eSort" : "1110115" },
    {"id":181,"stationCd" : "1110116", "stationGrpCd" : "1110116", "stationName" : "銚子口", "stationNameK" : "チョウシグチ", "stationNameR" : "choushiguchi", "lineCd" : "11101", "prefCd" : "1", "lon" : "140.720656", "lat" : "42.015471", "openYMD" : "1945-06-01", "closeYMD" : "2022-03-12", "eStatus" : "2", "eSort" : "1110116" },
    {"id":182,"stationCd" : "1110117", "stationGrpCd" : "1110117", "stationName" : "鹿部", "stationNameK" : "シカベ", "stationNameR" : "shikabe", "lineCd" : "11101", "prefCd" : "1", "lon" : "140.771393", "lat" : "42.06439", "openYMD" : "0000-00-00", "closeYMD" : "0000-00-00", "eStatus" : "0", "eSort" : "1110117" },
    {"id":183,"stationCd" : "1110118", "stationGrpCd" : "1110118", "stationName" : "渡島沼尻", "stationNameK" : "オシマヌマジリ", "stationNameR" : "oshimanumajiri", "lineCd" : "11101", "prefCd" : "1", "lon" : "140.747596", "lat" : "42.10706", "openYMD" : "0000-00-00", "closeYMD" : "0000-00-00", "eStatus" : "0", "eSort" : "1110118" },